,psgc_code,formatted_address,province,latitude,longitude,accuracy,google_place_id,type,input_string,number_of_results,status
0,110000000,"Davao Region, Philippines",,7.3041622,126.0893406,APPROXIMATE,ChIJM7RB5XuJ-TIRzHI3okcr4PM,"administrative_area_level_1,political",REGION XI (DAVAO REGION),1,OK
1,112300000,"Davao del Norte, Philippines",,7.5617699,125.6532848,APPROXIMATE,ChIJHSqPedBL-TIRi2ija0Q5qj0,"administrative_area_level_2,political",DAVAO DEL NORTE,1,OK
4,112301006,"Asunción, Paraguay",Davo Del Norte,-25.2637399,-57.575926,APPROXIMATE,ChIJ9dtpbgeoXZQRyTYZv0Z666w,"locality,political","Buan,Asuncion,Davo Del Norte",2,OK
6,112301008,"Cabaywa, Asuncion, Davao del Norte, Philippines",Davo Del Norte,7.5646389,125.7679821,APPROXIMATE,ChIJ5wXo02iu_jIRn_1jcdLCgOg,"administrative_area_level_5,political","Cabaywa,Asuncion,Davo Del Norte",1,OK
8,112301010,"Camoning, Asuncion, Davao del Norte, Philippines",Davo Del Norte,7.5848571,125.7461477,APPROXIMATE,ChIJQaP4jyqu_jIRmvWqin0_WNs,"administrative_area_level_5,political","Camoning,Asuncion,Davo Del Norte",1,OK
9,112301011,"Canatan, Asuncion, Davao del Norte, Philippines",Davo Del Norte,7.591883,125.7679821,APPROXIMATE,ChIJOSMkHrCv_jIRNsiJvUSOUCQ,"administrative_area_level_5,political","Canatan,Asuncion,Davo Del Norte",1,OK
10,112301012,"Asunción, Paraguay",Davo Del Norte,-25.2637399,-57.575926,APPROXIMATE,ChIJ9dtpbgeoXZQRyTYZv0Z666w,"locality,political","Concepcion,Asuncion,Davo Del Norte",1,OK
11,112301013,"Asuncion, Davao del Norte, Philippines",Davo Del Norte,7.6060257,125.7625241,APPROXIMATE,ChIJ83xWbMel_jIRSYBnf1v3Pw4,"locality,political","Doña Andrea,Asuncion,Davo Del Norte",1,OK
12,112301026,"Magatos, Asuncion, Davao del Norte, Philippines",Davo Del Norte,7.5495539,125.7352283,APPROXIMATE,ChIJi1k6EQey_jIRqvzRmrGMaZ0,"administrative_area_level_5,political","Magatos,Asuncion,Davo Del Norte",1,OK
14,112301029,"Magatos - New Bantayan Rd, Asuncion, Davao del Norte, Philippines",Davo Del Norte,7.5520225,125.7343127,GEOMETRIC_CENTER,ChIJH5cvNQKy_jIRGb_6whKDgDY,route,"New Bantayan,Asuncion,Davo Del Norte",2,OK
16,112301031,"Pamacaun, Davao del Norte, Philippines",Davo Del Norte,7.6586167,125.7352283,APPROXIMATE,ChIJVXpkNdS6_jIRnaiRZLrkqhY,"administrative_area_level_5,political","Pamacaun,Asuncion,Davo Del Norte",1,OK
17,112301032,"Cambanogoy (Pob.), Asuncion, Davao del Norte, Philippines",Davo Del Norte,7.5384301,125.7570657,APPROXIMATE,ChIJ92dIcuqt_jIRU47m2cIRpvU,"administrative_area_level_5,political","Cambanogoy (Pob.),Asuncion,Davo Del Norte",1,OK
18,112301034,"Sagayen, Asuncion, Davao del Norte, Philippines",Davo Del Norte,7.6464099,125.7679821,APPROXIMATE,ChIJG3IEQQ6l_jIRxJe-Hd27e7g,"administrative_area_level_5,political","Sagayen,Asuncion,Davo Del Norte",1,OK
19,112301036,"San Vicente, Asunción, Paraguay",Davo Del Norte,-25.3182335,-57.6207023,APPROXIMATE,ChIJnza4UUeoXZQRlRCmKTapEDE,"neighborhood,political","San Vicente,Asuncion,Davo Del Norte",1,OK
20,112301037,"Asunción, Paraguay",Davo Del Norte,-25.2637399,-57.575926,APPROXIMATE,ChIJ9dtpbgeoXZQRyTYZv0Z666w,"locality,political","Santa Filomena,Asuncion,Davo Del Norte",1,OK
22,112301040,"New Loon, Davao del Norte, Philippines",Davo Del Norte,7.6859146,125.7352283,APPROXIMATE,ChIJaaao5je7_jIRETxa-2mRALY,"administrative_area_level_5,political","New Loon,Asuncion,Davo Del Norte",1,OK
23,112303000,"Carmen, Davao del Norte, Philippines",Davo Del Norte,7.3682098,125.6860723,APPROXIMATE,ChIJ1xqW9JhP-TIRTolgN0b-0E4,"locality,political","CARMEN,Davo Del Norte",1,OK
24,112303001,"Alejal, Carmen, Davao del Norte, Philippines",Davo Del Norte,7.385679,125.656898,APPROXIMATE,ChIJdcejvdNO-TIRYNwkO1vfTZM,"neighborhood,political","Alejal,Carmen,Davo Del Norte",1,OK
26,112303003,"Asuncion (cuatro-cuatro), Davao del Norte, Philippines",Davo Del Norte,7.3460723,125.6806086,APPROXIMATE,ChIJU9HZ62FP-TIRdtsni8l05PU,"administrative_area_level_5,political","Asuncion (Cuatro-Cuatro),Carmen,Davo Del Norte",1,OK
27,112303005,"Cebulano, Davao del Norte, Philippines",Davo Del Norte,7.3480622,125.6587503,APPROXIMATE,ChIJj7QqW0JP-TIRsN73oPtva14,"administrative_area_level_5,political","Cebulano,Carmen,Davo Del Norte",1,OK
29,112303007,"Carmen, Davao del Norte, Philippines",Davo Del Norte,7.3682098,125.6860723,APPROXIMATE,ChIJ1xqW9JhP-TIRTolgN0b-0E4,"locality,political","Ising (Pob.),Carmen,Davo Del Norte",1,OK
30,112303008,"Carmen, Davao del Norte, Philippines",Davo Del Norte,7.3682098,125.6860723,APPROXIMATE,ChIJ1xqW9JhP-TIRTolgN0b-0E4,"locality,political","La Paz,Carmen,Davo Del Norte",1,OK
31,112303010,"Mabaus, Davao del Norte, Philippines",Davo Del Norte,7.4034542,125.7461477,APPROXIMATE,ChIJZ4kzY_hR-TIR7VvSmLWNHto,"administrative_area_level_5,political","Mabaus,Carmen,Davo Del Norte",1,OK
32,112303011,"Mabuhay, Carmen, Davao del Norte, Philippines",Davo Del Norte,7.3837779,125.6396194,APPROXIMATE,ChIJrbiZtydJ-TIRArhHflpe9RY,"administrative_area_level_5,political","Mabuhay,Carmen,Davo Del Norte",1,OK
33,112303012,"Magsaysay, Davao del Norte, Philippines",Davo Del Norte,7.4205501,125.6587503,APPROXIMATE,ChIJ0YNvhf1L-TIRtCtGZbvBMQs,"administrative_area_level_5,political","Magsaysay,Carmen,Davo Del Norte",1,OK
34,112303014,"Mangalcal, Davao del Norte, Philippines",Davo Del Norte,7.365157,125.6450859,APPROXIMATE,ChIJ30SCJcZI-TIRCHnl0A_2Owc,"administrative_area_level_5,political","Mangalcal,Carmen,Davo Del Norte",1,OK
35,112303015,"Minda, Davao del Norte, Philippines",Davo Del Norte,7.3641132,125.606813,APPROXIMATE,ChIJ39pVOmBI-TIReYzArBrrcLo,"administrative_area_level_5,political","Minda,Carmen,Davo Del Norte",1,OK
36,112303016,"New Camiling, Carmen, Davao del Norte, Philippines",Davo Del Norte,7.3822951,125.6806086,APPROXIMATE,ChIJCeMQaeVO-TIRuRkbzdY8fww,"administrative_area_level_5,political","New Camiling,Carmen,Davo Del Norte",1,OK
37,112303018,"Davao City, Davao del Sur, Philippines",Davo Del Norte,7.190708,125.455341,APPROXIMATE,ChIJfzKeUZ9t-TIRc8V5n1gkOrU,"locality,political","San Isidro,Carmen,Davo Del Norte",1,OK
39,112303020,"Tibulao, Davao del Norte, Philippines",Davo Del Norte,7.3802246,125.6040785,APPROXIMATE,ChIJ9SZs4FdI-TIRHd1Iz9_HETs,"administrative_area_level_5,political","Tibulao,Carmen,Davo Del Norte",1,OK
40,112303021,"Tubod, Davao del Norte, Philippines",Davo Del Norte,7.3691664,125.6259517,APPROXIMATE,ChIJbfHAhOpI-TIRZoDzyaEjKGM,"administrative_area_level_5,political","Tubod,Carmen,Davo Del Norte",1,OK
41,112303022,"Tuganay, Carmen, Davao del Norte, Philippines",Davo Del Norte,7.368227,125.7106541,APPROXIMATE,ChIJ8eLyy7NP-TIRfYCk41gs5To,"administrative_area_level_5,political","Tuganay,Carmen,Davo Del Norte",1,OK
42,112303023,"Davao City, Davao del Sur, Philippines",Davo Del Norte,7.190708,125.455341,APPROXIMATE,ChIJfzKeUZ9t-TIRc8V5n1gkOrU,"locality,political","Salvacion,Carmen,Davo Del Norte",1,OK
44,112305000,"Kapalong, Davao del Norte, Philippines",Davo Del Norte,7.6194971,125.6278353,APPROXIMATE,ChIJQ9Gd5924_jIRf5JD5QgN8iE,"locality,political","KAPALONG,Davo Del Norte",1,OK
45,112305003,"Semong (Sampao), Davao del Norte, Philippines",Davo Del Norte,7.6912453,125.6314191,APPROXIMATE,ChIJzdmrnBK5_jIRtuD8xzBL2S0,"administrative_area_level_5,political","Semong,Kapalong,Davo Del Norte",1,OK
46,112305005,"Florida, San Isidro, Davao del Norte, Philippines",Davo Del Norte,7.7184485,125.6806086,APPROXIMATE,ChIJYY22EEa8_jIRyjKcn7uholk,"administrative_area_level_5,political","Florida,Kapalong,Davo Del Norte",1,OK
47,112305006,"Gabuyan, Davao del Norte, Philippines",Davo Del Norte,7.6365009,125.6806086,APPROXIMATE,ChIJA6S4r3S6_jIRBQm31iEPjVM,"administrative_area_level_5,political","Gabuyan,Kapalong,Davo Del Norte",1,OK
48,112305007,"Gupitan, Davao del Norte, Philippines",Davo Del Norte,7.9027081,125.5220012,APPROXIMATE,ChIJ8TlpbJLs_jIREf2YEJZUO2g,"administrative_area_level_5,political","Gupitan,Kapalong,Davo Del Norte",1,OK
49,112305008,"Capungagan, Davao del Norte, Philippines",Davo Del Norte,7.6536086,125.7161156,APPROXIMATE,ChIJsWiKmum6_jIRdtOgWxJqNsM,"administrative_area_level_5,political","Capungagan,Kapalong,Davo Del Norte",1,OK
50,112305009,"Katipunan, Davao del Norte, Philippines",Davo Del Norte,7.6547015,125.6806086,APPROXIMATE,ChIJqVNHNFu6_jIRMIUXiEy3Ep4,"administrative_area_level_5,political","Katipunan,Kapalong,Davo Del Norte",1,OK
51,112305012,"Brgy. Luna, Kapalong, Davao del Norte, Philippines",Davo Del Norte,7.5763977,125.6669479,APPROXIMATE,ChIJlyRdXUax_jIRci9DZNTAW_I,"neighborhood,political","Luna,Kapalong,Davo Del Norte",1,OK
52,112305013,"Mabantao, Kapalong, Davao del Norte, Philippines",Davo Del Norte,7.646971,125.674797,APPROXIMATE,ChIJUZJXsRS6_jIRmA4grW02710,"neighborhood,political","Mabantao,Kapalong,Davo Del Norte",1,OK
53,112305015,"Mamacao, Kapalong, Davao del Norte, Philippines",Davo Del Norte,7.5900719,125.6423527,APPROXIMATE,ChIJcZkHaSC3_jIRUn0e4iNHg60,"administrative_area_level_5,political","Mamacao,Kapalong,Davo Del Norte",1,OK
54,112305018,"Pag-asa, Davao del Norte, Philippines",Davo Del Norte,7.5839111,125.7079231,APPROXIMATE,ChIJEV9k1bKx_jIRjZIqpO7r_4s,"administrative_area_level_5,political","Pag-asa,Kapalong,Davo Del Norte",1,OK
55,112305021,"Maniki (Poblacion), Asuncion, Davao del Norte, Philippines",Davo Del Norte,7.6232725,125.7243073,APPROXIMATE,ChIJnzAhEKC6_jIRqNIrimWfndI,"administrative_area_level_5,political","Maniki (Poblacion),Kapalong,Davo Del Norte",1,OK
56,112305022,"Sampao (Bienvenida), Kapalong, Davao del Norte, Philippines",Davo Del Norte,7.619337,125.6696802,APPROXIMATE,ChIJmR1_Fb-w_jIRdMW1Anj3FlY,"administrative_area_level_5,political","Sampao,Kapalong,Davo Del Norte",1,OK
57,112305026,"Sua-on, Davao del Norte, Philippines",Davo Del Norte,7.7357782,125.6423527,APPROXIMATE,ChIJYeczM2S-_jIRBzyZXCzzlz0,"administrative_area_level_5,political","Sua-on,Kapalong,Davo Del Norte",1,OK
58,112305028,"Tiburcia, Davao del Norte, Philippines",Davo Del Norte,7.6253379,125.702461,APPROXIMATE,ChIJXeBcbX2w_jIRNJOca0EnGDw,"administrative_area_level_5,political","Tiburcia,Kapalong,Davo Del Norte",1,OK
59,112314000,"New Corella, Davao del Norte, Philippines",Davo Del Norte,7.5977693,125.8498078,APPROXIMATE,ChIJi6r_3JGo_jIRzRIx9lFaug0,"locality,political","NEW CORELLA,Davo Del Norte",1,OK
60,112314001,"Cabidianan, Davao del Norte, Philippines",Davo Del Norte,7.6723648,125.8770642,APPROXIMATE,ChIJq46IwDqn_jIR46ssgWaaj4w,"administrative_area_level_5,political","Cabidianan,New Corella,Davo Del Norte",1,OK
61,112314002,"New Corella, Santa Cruz, Davao del Norte, Philippines",Davo Del Norte,7.5977693,125.8498078,GEOMETRIC_CENTER,ChIJB_1y4sKp_jIRRE2JnyhqnRA,"establishment,point_of_interest,store","Carcor,New Corella,Davo Del Norte",1,OK
62,112314003,"Del Monte, Davao del Norte, Philippines",Davo Del Norte,7.6521144,125.8988626,APPROXIMATE,ChIJqSrXPJ-n_jIRzBJPJ1h1Zg8,"administrative_area_level_5,political","Del Monte,New Corella,Davo Del Norte",1,OK
63,112314004,"Del Pilar, Davao del Norte, Philippines",Davo Del Norte,7.5605331,125.811633,APPROXIMATE,ChIJ0c8YSL-u_jIRhrBe589T108,"administrative_area_level_5,political","Del Pilar,New Corella,Davo Del Norte",1,OK
64,112314005,"El Salvador, Davao del Norte, Philippines",Davo Del Norte,7.6318787,125.9206549,APPROXIMATE,ChIJszxX_GYd_DIRiZUe6prOxj8,"administrative_area_level_5,political","El Salvador,New Corella,Davo Del Norte",1,OK
65,112314006,"Limba-an, New Corella, Davao del Norte, Philippines",Davo Del Norte,7.6381096,125.8552598,APPROXIMATE,ChIJsdj26zmm_jIRoqatZNSrYwY,"administrative_area_level_5,political","Limba-an,New Corella,Davo Del Norte",1,OK
66,112314007,"Macgum, Davao del Norte, Philippines",Davo Del Norte,7.6744509,125.8552598,APPROXIMATE,ChIJsV7RecWm_jIRlu0OYpWgRNY,"administrative_area_level_5,political","Macgum,New Corella,Davo Del Norte",1,OK
67,112314008,"Mambing, Davao del Norte, Philippines",Davo Del Norte,7.6763078,125.9070354,APPROXIMATE,ChIJ3zolE1Gn_jIRDl1RSh42pmg,"administrative_area_level_5,political","Mambing,New Corella,Davo Del Norte",1,OK
68,112314009,"New Corella, Davao del Norte, Philippines",Davo Del Norte,7.5977693,125.8498078,APPROXIMATE,ChIJi6r_3JGo_jIRzRIx9lFaug0,"locality,political","Mesaoy,New Corella,Davo Del Norte",1,OK
69,112314010,"New Bohol, New Corella, Davao del Norte, Philippines",Davo Del Norte,7.526667,125.832497,APPROXIMATE,ChIJOzRhTIur_jIRW-G8i1LYQcg,"neighborhood,political","New Bohol,New Corella,Davo Del Norte",1,OK
70,112314011,"New Cortez, Davao del Norte, Philippines",Davo Del Norte,7.5493236,125.8825144,APPROXIMATE,ChIJqUGAysGp_jIRsJ22Ql9oi7Y,"administrative_area_level_5,political","New Cortez,New Corella,Davo Del Norte",1,OK
71,112314012,"New Sambog, Davao del Norte, Philippines",Davo Del Norte,7.6160393,125.8007225,APPROXIMATE,ChIJIXpWPV6v_jIRW7KY-cFi_XM,"administrative_area_level_5,political","New Sambog,New Corella,Davo Del Norte",1,OK
72,112314013,"Patrocenio, Davao del Norte, Philippines",Davo Del Norte,7.5875531,125.9097595,APPROXIMATE,ChIJkcNiDzuo_jIRqKagsFVjTgE,"administrative_area_level_5,political","Patrocenio,New Corella,Davo Del Norte",1,OK
73,112314014,"New Corella, Davao del Norte, Philippines",Davo Del Norte,7.5977693,125.8498078,APPROXIMATE,ChIJi6r_3JGo_jIRzRIx9lFaug0,"locality,political","Poblacion,New Corella,Davo Del Norte",1,OK
74,112314015,"San Roque, Davao del Norte, Philippines",Davo Del Norte,7.6422609,125.811633,APPROXIMATE,ChIJHQTtlMal_jIRPwMJq8nJvU4,"administrative_area_level_5,political","San Roque,New Corella,Davo Del Norte",1,OK
75,112314016,"Santa Cruz, Davao del Norte, Philippines",Davo Del Norte,7.5877628,125.811633,APPROXIMATE,ChIJ03e_WB-v_jIRIdvxJ0K1774,"administrative_area_level_5,political","Santa Cruz,New Corella,Davo Del Norte",1,OK
76,112314017,"Santa Fe, New Corella, Davao del Norte, Philippines",Davo Del Norte,7.6168399,125.8879642,APPROXIMATE,ChIJ_XBeidyn_jIRqkAzOP_zgl8,"administrative_area_level_5,political","Santa Fe,New Corella,Davo Del Norte",1,OK
77,112314018,"Santo Nino, New Corella, Davao del Norte, Philippines",Davo Del Norte,7.6492711,125.8334494,APPROXIMATE,ChIJRafsw32m_jIRaAcZ_gJRuUk,"administrative_area_level_5,political","Santo Niño,New Corella,Davo Del Norte",1,OK
78,112314019,"Suawon, Davao del Norte, Philippines",Davo Del Norte,7.6674466,125.8334494,APPROXIMATE,ChIJCTe4BZWm_jIRbQ8-aWNAf0Q,"administrative_area_level_5,political","Suawon,New Corella,Davo Del Norte",1,OK
79,112314020,"San Jose, New Corella, Davao del Norte, Philippines",Davo Del Norte,7.5750329,125.874339,APPROXIMATE,ChIJA1bISlOo_jIRJCUvzQdszNo,"administrative_area_level_5,political","San Jose,New Corella,Davo Del Norte",1,OK
80,112315000,"Panabo, Davao del Norte, Philippines",Davo Del Norte,7.3087068,125.6841178,APPROXIMATE,ChIJ_-hpYFpE-TIRULmUr9KGfG0,"locality,political","CITY OF PANABO,Davo Del Norte",1,OK
81,112315001,"A. O. Floirendo, Davao del Norte, Philippines",Davo Del Norte,7.4013583,125.5712576,APPROXIMATE,ChIJ75dP4r9J-TIRRHKE8nsBqWQ,"administrative_area_level_5,political","A. O. Floirendo,Panabo,Davo Del Norte",1,OK
82,112315002,"Datu Abdul Dadia, Panabo, Davao del Norte, Philippines",Davo Del Norte,7.3093432,125.6614829,APPROXIMATE,ChIJPbNO-CpE-TIR-t1sZJFB3FU,"administrative_area_level_5,political","Datu Abdul Dadia,Panabo,Davo Del Norte",1,OK
83,112315003,"Buenavista, Panabo, Davao del Norte, Philippines",Davo Del Norte,7.278083,125.606813,APPROXIMATE,ChIJbUyG8ytH-TIRX7lMYPIBlYM,"administrative_area_level_5,political","Buenavista,Panabo,Davo Del Norte",1,OK
84,112315004,"Cacao, Panabo, Davao del Norte, Philippines",Davo Del Norte,7.3077467,125.6040785,APPROXIMATE,ChIJ_aheQgRH-TIR7bne8Yyy2_w,"administrative_area_level_5,political","Cacao,Panabo,Davo Del Norte",1,OK
85,112315005,"Cagangohan, Davao del Norte, Philippines",Davo Del Norte,7.2892737,125.6833405,APPROXIMATE,ChIJR6UGCGhE-TIRzHOWi6ctlJk,"administrative_area_level_5,political","Cagangohan,Panabo,Davo Del Norte",1,OK
86,112315006,"Consolacion, Davao del Norte, Philippines",Davo Del Norte,7.3137159,125.5630503,APPROXIMATE,ChIJvzYPq4E4-TIRMhUzqAFFomM,"administrative_area_level_5,political","Consolacion,Panabo,Davo Del Norte",1,OK
87,112315007,"Dapco, Davao del Norte, Philippines",Davo Del Norte,7.3882723,125.5904048,APPROXIMATE,ChIJ2Qpnm7VJ-TIR2jkty1HmStM,"administrative_area_level_5,political","Dapco,Panabo,Davo Del Norte",1,OK
88,112315009,"Gredu (Pob.), Panabo, Davao del Norte, Philippines",Davo Del Norte,7.2947838,125.6724125,APPROXIMATE,ChIJ-cIE_zdE-TIRXhKUqwL850I,"administrative_area_level_5,political","Gredu (Pob.),Panabo,Davo Del Norte",1,OK
89,112315010,"J P Laurel, Panabo, Davao del Norte, Philippines",Davo Del Norte,7.3003073,125.6822217,GEOMETRIC_CENTER,ChIJd8L-oU5E-TIRJkBT4KjNGaQ,route,"J.P. Laurel,Panabo,Davo Del Norte",1,OK
90,112315011,"Kasilak, Panabo, Davao del Norte, Philippines",Davo Del Norte,7.3268479,125.5931397,APPROXIMATE,ChIJvX1fab5H-TIRBbsbR8JbPSs,"administrative_area_level_5,political","Kasilak,Panabo,Davo Del Norte",1,OK
91,112315012,"Katipunan, Panabo, Davao del Norte, Philippines",Davo Del Norte,7.3148224,125.6259517,APPROXIMATE,ChIJB_PaS19G-TIR9fcNP3ODepA,"administrative_area_level_5,political","Katipunan,Panabo,Davo Del Norte",1,OK
92,112315013,"Katualan, Davao del Norte, Philippines",Davo Del Norte,7.240803,125.5685219,APPROXIMATE,ChIJownv6YBA-TIRYl6FvIlo5h0,"administrative_area_level_5,political","Katualan,Panabo,Davo Del Norte",1,OK
93,112315014,"Kauswagan, Panabo, Davao del Norte, Philippines",Davo Del Norte,7.3097227,125.5821994,APPROXIMATE,ChIJg-o_-G1H-TIRwDykn_Ve9bg,"administrative_area_level_5,political","Kauswagan,Panabo,Davo Del Norte",1,OK
94,112315015,"Kiotoy, Panabo, Davao del Norte, Philippines",Davo Del Norte,7.2554653,125.606813,APPROXIMATE,ChIJrdbxzeBA-TIRugocIpvc3ls,"administrative_area_level_5,political","Kiotoy,Panabo,Davo Del Norte",1,OK
95,112315016,"Little Panay, Panabo, Davao del Norte, Philippines",Davo Del Norte,7.2972535,125.6450859,APPROXIMATE,ChIJkU6Wb4NG-TIR_jtFTP-viOA,"administrative_area_level_5,political","Little Panay,Panabo,Davo Del Norte",1,OK
96,112315017,"Lower Panaga (Roxas), Davao del Norte, Philippines",Davo Del Norte,7.4283241,125.5616823,APPROXIMATE,ChIJJ_xXsf41-TIRN_jOiL7-bds,"administrative_area_level_5,political","Lower Panaga (Roxas),Panabo,Davo Del Norte",1,OK
97,112315018,"Mabunao, Panabo, Davao del Norte, Philippines",Davo Del Norte,7.2644592,125.5821994,APPROXIMATE,ChIJEd_WRr9A-TIRVewMMLfDlMg,"administrative_area_level_5,political","Mabunao,Panabo,Davo Del Norte",1,OK
98,112315019,"Maduao, Davao del Norte, Philippines",Davo Del Norte,7.2746372,125.6450859,APPROXIMATE,ChIJd78NX6lG-TIR0_6wFC2MX0w,"administrative_area_level_5,political","Maduao,Panabo,Davo Del Norte",1,OK
99,112315020,"Malativas, Davao del Norte, Philippines",Davo Del Norte,7.2865461,125.5630503,APPROXIMATE,ChIJey6xuFVH-TIRqW3r60YaFHY,"administrative_area_level_5,political","Malativas,Panabo,Davo Del Norte",1,OK
100,112315021,"Manay, Davao del Norte, Philippines",Davo Del Norte,7.3444383,125.5739932,APPROXIMATE,ChIJJUcWPe5H-TIRWQoksA1hJBc,"administrative_area_level_5,political","Manay,Panabo,Davo Del Norte",1,OK
101,112315022,"Nanyo, Panabo, Davao del Norte, Philippines",Davo Del Norte,7.3409946,125.6368861,APPROXIMATE,ChIJccAgyxBG-TIRMtjhzGFuIoU,"administrative_area_level_5,political","Nanyo,Panabo,Davo Del Norte",1,OK
102,112315023,"New Malaga (Dalisay), Davao del Norte, Philippines",Davo Del Norte,7.3454305,125.5630503,APPROXIMATE,ChIJecKc7Ag4-TIRJ96-zPWNws0,"administrative_area_level_5,political","New Malaga (Dalisay),Panabo,Davo Del Norte",1,OK
103,112315024,"New Malitbog, Panabo, Davao del Norte, Philippines",Davo Del Norte,7.342981,125.6150159,APPROXIMATE,ChIJLXgWETJG-TIRF-hnXW-_xdI,"administrative_area_level_5,political","New Malitbog,Panabo,Davo Del Norte",1,OK
104,112315025,"New Pandan (Pob.), Panabo, Davao del Norte, Philippines",Davo Del Norte,7.2970637,125.6847064,APPROXIMATE,ChIJM8tyL1BE-TIR3Lu1R1x2aBY,"administrative_area_level_5,political","New Pandan (Pob.),Panabo,Davo Del Norte",1,OK
105,112315026,"New Visayas, Panabo, Davao del Norte, Philippines",Davo Del Norte,7.3128774,125.6724125,APPROXIMATE,ChIJb2NJQ8hF-TIR5-JfnrOMnac,"administrative_area_level_5,political","New Visayas,Panabo,Davo Del Norte",1,OK
106,112315027,"Quezon St, Panabo, Davao del Norte, Philippines",Davo Del Norte,7.2966085,125.6817297,GEOMETRIC_CENTER,ChIJFyGs3U5E-TIRRwDUpBnsnF4,route,"Quezon,Panabo,Davo Del Norte",1,OK
107,112315028,"Salvacion, Panabo, Davao del Norte, Philippines",Davo Del Norte,7.3164106,125.6833405,APPROXIMATE,ChIJh8ty7bpF-TIR5lfvh0de5gI,"administrative_area_level_5,political","Salvacion,Panabo,Davo Del Norte",1,OK
108,112315029,"San Francisco (Pob.), Panabo, Davao del Norte, Philippines",Davo Del Norte,7.3066039,125.6792427,APPROXIMATE,ChIJ-3NfubRF-TIRpuHP-CLxuLE,"administrative_area_level_5,political","San Francisco (Pob.),Panabo,Davo Del Norte",1,OK
109,112315030,"San Nicolas, Davao del Norte, Philippines",Davo Del Norte,7.2685433,125.6122817,APPROXIMATE,ChIJfUPvhSVB-TIRIkwlw-VGIpM,"administrative_area_level_5,political","San Nicolas,Panabo,Davo Del Norte",1,OK
110,112315031,"San Roque, Davao del Norte, Philippines",Davo Del Norte,7.2649233,125.5644182,APPROXIMATE,ChIJMziPhqBA-TIRlL30DtyucyI,"administrative_area_level_5,political","San Roque,Panabo,Davo Del Norte",1,OK
111,112315032,"San Vicente, Panabo, Davao del Norte, Philippines",Davo Del Norte,7.3154193,125.694267,APPROXIMATE,ChIJWyof56dF-TIRy_BDmRCwm28,"administrative_area_level_5,political","San Vicente,Panabo,Davo Del Norte",1,OK
112,112315033,"Santa Cruz, Davao del Norte, Philippines",Davo Del Norte,7.2444048,125.6040785,APPROXIMATE,ChIJl5TwAPpA-TIRm3-XCIL1c6A,"administrative_area_level_5,political","Santa Cruz,Panabo,Davo Del Norte",1,OK
113,112315034,"Santo Nino (Pob.), Panabo, Davao del Norte, Philippines",Davo Del Norte,7.3033527,125.6901698,APPROXIMATE,ChIJ6RvfcVNE-TIRFXQpiebnEKQ,"administrative_area_level_5,political","Santo Niño (Pob.),Panabo,Davo Del Norte",1,OK
114,112315035,"Sindaton, Davao del Norte, Philippines",Davo Del Norte,7.4195052,125.5712576,APPROXIMATE,ChIJNYCQofhJ-TIRamsrhVczc0Y,"administrative_area_level_5,political","Sindaton,Panabo,Davo Del Norte",1,OK
115,112315036,"Southern Davao, Panabo, Davao del Norte, Philippines",Davo Del Norte,7.3279396,125.6560176,APPROXIMATE,ChIJEbXG9vxF-TIR2lpNfbdK720,"administrative_area_level_5,political","Southern Davao,Panabo,Davo Del Norte",1,OK
116,112315037,"Tagpore, Davao del Norte, Philippines",Davo Del Norte,7.2715911,125.6286854,APPROXIMATE,ChIJqzzGxzRB-TIR6kk9Dl0GFFk,"administrative_area_level_5,political","Tagpore,Panabo,Davo Del Norte",1,OK
117,112315038,"Tibungol, Davao del Norte, Philippines",Davo Del Norte,7.3741487,125.5712576,APPROXIMATE,ChIJv4-DvDJI-TIRFr2Y_bIU41A,"administrative_area_level_5,political","Tibungol,Panabo,Davo Del Norte",1,OK
118,112315039,"Upper Licanan, Panabo, Davao del Norte, Philippines",Davo Del Norte,7.2901787,125.6232179,APPROXIMATE,ChIJKz2Js9xG-TIRzOs8WHfoMOs,"administrative_area_level_5,political","Upper Licanan,Panabo,Davo Del Norte",1,OK
119,112315040,"Brgy. Waterfall Panabo City, Panabo, Davao del Norte, Philippines",Davo Del Norte,7.3087068,125.6841202,GEOMETRIC_CENTER,ChIJrYEgOrJF-TIR53Q_OanyEcQ,"establishment,point_of_interest,primary_school,school","Waterfall,Panabo,Davo Del Norte",1,OK
120,112315041,"San Pedro, Panabo, Davao del Norte, Philippines",Davo Del Norte,7.3053832,125.7051921,APPROXIMATE,ChIJh_JZgwNF-TIRSAjZ0C1sp1U,"administrative_area_level_5,political","San Pedro,Panabo,Davo Del Norte",1,OK
121,112317000,"Island Garden City of Samal, Davao del Norte, Philippines",Davo Del Norte,7.103312,125.7188463,APPROXIMATE,ChIJO-U_rRpw-TIRD2MWZ3-h1us,"locality,political","ISLAND GARDEN CITY OF SAMAL,Davo Del Norte",1,OK
122,112317001,"Adecor, Kaputian, Island Garden City of Samal, Davao del Norte, Philippines",Davo Del Norte,7.0193182,125.7270377,APPROXIMATE,ChIJ0V_-BYhw-TIR930JAfFTehA,"neighborhood,political","Adecor,Island Garden City of Samal,Davo Del Norte",1,OK
123,112317002,"Anonang, Kaputian, Island Garden City of Samal, Davao del Norte, Philippines",Davo Del Norte,7.0064101,125.7461477,APPROXIMATE,ChIJN42W9X56-TIR-GJ2j_Gipvw,"neighborhood,political","Anonang,Island Garden City of Samal,Davo Del Norte",1,OK
124,112317003,"Aumbay, Samal, Island Garden City of Samal, Davao del Norte, Philippines",Davo Del Norte,7.101028,125.779297,APPROXIMATE,ChIJw2nu28tl-TIRL0UiNj5iURA,"neighborhood,political","Aumbay,Island Garden City of Samal,Davo Del Norte",1,OK
125,112317004,"Aundanao, Samal, Island Garden City of Samal, Davao del Norte, Philippines",Davo Del Norte,7.0955175,125.7816256,APPROXIMATE,ChIJb5OQsbVl-TIRQON8_auOKHE,"neighborhood,political","Aundanao,Island Garden City of Samal,Davo Del Norte",1,OK
126,112317005,"Balet, Babak, Island Garden City of Samal, Davao del Norte, Philippines",Davo Del Norte,7.1594783,125.7461477,APPROXIMATE,ChIJQ7CeFdJn-TIRqj_yS9PePqo,"neighborhood,political","Balet,Island Garden City of Samal,Davo Del Norte",1,OK
127,112317006,"Bandera, Kaputian, Island Garden City of Samal, Davao del Norte, Philippines",Davo Del Norte,6.9874808,125.7570657,APPROXIMATE,ChIJo_L5PQ56-TIRgRR-Z4g7Ftg,"neighborhood,political","Bandera,Island Garden City of Samal,Davo Del Norte",10,OK
128,112317007,"Caliclic, Babak, Island Garden City of Samal, Davao del Norte, Philippines",Davo Del Norte,7.1051531,125.6724125,APPROXIMATE,ChIJgyGeNMFu-TIREh4WYsCdG54,"neighborhood,political","Caliclic (Dangca-an),Island Garden City of Samal,Davo Del Norte",2,OK
129,112317008,"Camudmud, Babak, Island Garden City of Samal, Davao del Norte, Philippines",Davo Del Norte,7.1839098,125.6997298,APPROXIMATE,ChIJUwSXHjJo-TIRjHOFaYEhOgc,"neighborhood,political","Camudmud,Island Garden City of Samal,Davo Del Norte",1,OK
130,112317009,"Catagman, Samal, Island Garden City of Samal, Davao del Norte, Philippines",Davo Del Norte,7.068148,125.6833405,APPROXIMATE,ChIJk-lSmUdu-TIRKSrVxvRoUkw,"neighborhood,political","Catagman,Island Garden City of Samal,Davo Del Norte",1,OK
131,112317010,"Cawag, Samal, Island Garden City of Samal, Davao del Norte, Philippines",Davo Del Norte,7.0602917,125.7215769,APPROXIMATE,ChIJW2cMy-5v-TIRK3VI27KhYIw,"neighborhood,political","Cawag,Island Garden City of Samal,Davo Del Norte",1,OK
132,112317011,"Cogon, Kaputian, Island Garden City of Samal, Davao del Norte, Philippines",Davo Del Norte,6.9113451,125.702461,APPROXIMATE,ChIJFTI8ctF3-TIRFxE56eNzEVQ,"neighborhood,political","Cogon,Island Garden City of Samal,Davo Del Norte",1,OK
133,112317012,"La Isla Bonita Talikud Island Beach Resort, Island Garden City of Samal, 8120, Philippines",Davo Del Norte,6.9027982,125.6983519,GEOMETRIC_CENTER,ChIJx1ieSX-d-TIRLcJm5aqCrZc,"establishment,lodging,point_of_interest","Cogon (Talicod),Island Garden City of Samal,Davo Del Norte",1,OK
134,112317013,"Dadatan, Kaputian, Island Garden City of Samal, Davao del Norte, Philippines",Davo Del Norte,6.9511736,125.6833405,APPROXIMATE,ChIJBYTTHOd2-TIROZhpSf5Mvy0,"neighborhood,political","Dadatan,Island Garden City of Samal,Davo Del Norte",1,OK
135,112317014,"Del Monte, Samal, Island Garden City of Samal, Davao del Norte, Philippines",Davo Del Norte,7.0408556,125.7379583,APPROXIMATE,ChIJFx7Rewdw-TIReA06gVAEN3Y,"neighborhood,political","Del Monte,Island Garden City of Samal,Davo Del Norte",1,OK
136,112317015,"Guilon, Samal, Island Garden City of Samal, Davao del Norte, Philippines",Davo Del Norte,7.0684268,125.7570657,APPROXIMATE,ChIJNaXjvWdl-TIRf7vCpVJfSfk,"neighborhood,political","Guilon,Island Garden City of Samal,Davo Del Norte",1,OK
137,112317016,"Kanaan, Kaputian, Island Garden City of Samal, Davao del Norte, Philippines",Davo Del Norte,6.9676151,125.7788971,APPROXIMATE,ChIJh9Z0Cod5-TIRG0VEwsXnwng,"neighborhood,political","Kanaan,Island Garden City of Samal,Davo Del Norte",1,OK
138,112317017,"Kinawitnon, Babak, Island Garden City of Samal, Davao del Norte, Philippines",Davo Del Norte,7.12222,125.6833405,APPROXIMATE,ChIJld_9uc1u-TIR_8rwb-qUngs,"neighborhood,political","Kinawitnon,Island Garden City of Samal,Davo Del Norte",1,OK
139,112317018,"Libertad, Kaputian, Island Garden City of Samal, Davao del Norte, Philippines",Davo Del Norte,6.9246054,125.7570657,APPROXIMATE,ChIJCyQ-OTp4-TIRxxf6415eRYg,"neighborhood,political","Libertad,Island Garden City of Samal,Davo Del Norte",10,OK
140,112317019,"Libuak, Babak, Island Garden City of Samal, Davao del Norte, Philippines",Davo Del Norte,7.1514332,125.7352283,APPROXIMATE,ChIJ2zgpiH1o-TIR5HFJNGRFDMY,"neighborhood,political","Libuak,Island Garden City of Samal,Davo Del Norte",1,OK
141,112317020,"Licup, Samal, Island Garden City of Samal, Davao del Norte, Philippines",Davo Del Norte,7.0818418,125.7324982,APPROXIMATE,ChIJexOYyYNv-TIRGmEJnKmGB_A,"neighborhood,political","Licup,Island Garden City of Samal,Davo Del Norte",1,OK
142,112317021,"Limao, Samal, Island Garden City of Samal, Davao del Norte, Philippines",Davo Del Norte,7.0866464,125.6778767,APPROXIMATE,ChIJQQh27l9u-TIR3ccfv_xMXvA,"neighborhood,political","Limao,Island Garden City of Samal,Davo Del Norte",1,OK
143,112317022,"Linosutan, Kaputian, Island Garden City of Samal, Davao del Norte, Philippines",Davo Del Norte,6.9327295,125.688804,APPROXIMATE,ChIJxc2Xok92-TIRKuRX9Es7BCQ,"neighborhood,political","Linosutan,Island Garden City of Samal,Davo Del Norte",1,OK
144,112317023,"Mambago A, Samal, Island Garden City of Samal, Davao del Norte, Philippines",Davo Del Norte,7.1017821,125.7106541,APPROXIMATE,ChIJPWY-NRFv-TIRvsYw_F7_-7A,"neighborhood,political","Mambago-A,Island Garden City of Samal,Davo Del Norte",1,OK
145,112317024,"Mambago B, Babak, Island Garden City of Samal, Davao del Norte, Philippines",Davo Del Norte,7.1102276,125.6915355,APPROXIMATE,ChIJHSI34thu-TIR2310IEKaTbE,"neighborhood,political","Mambago-B,Island Garden City of Samal,Davo Del Norte",1,OK
146,112317025,"Miranda (Pob.), Babak, Island Garden City of Samal, Davao del Norte, Philippines",Davo Del Norte,7.1392878,125.694267,APPROXIMATE,ChIJL_5ZSCBp-TIRzFbwYhW1Za4,"administrative_area_level_5,political","Miranda (Pob.),Island Garden City of Samal,Davo Del Norte",1,OK
147,112317026,"Moncado (Pob.), Babak, Island Garden City of Samal, Davao del Norte, Philippines",Davo Del Norte,7.1307538,125.688804,APPROXIMATE,ChIJ_zfA6y5p-TIRZvyoxGR6k9o,"administrative_area_level_5,political","Moncado (Pob.),Island Garden City of Samal,Davo Del Norte",1,OK
148,112317027,"Kaputian, Island Garden City of Samal, Davao del Norte, Philippines",Davo Del Norte,6.9406756,125.7788971,GEOMETRIC_CENTER,ChIJ_____6t5-TIRcxMH2kcRgkA,"establishment,point_of_interest","Pangubatan (Talicod I),Island Garden City of Samal,Davo Del Norte",1,OK
149,112317028,"Penaplata (Pob.), Samal, Island Garden City of Samal, Davao del Norte, Philippines",Davo Del Norte,7.0742773,125.7161156,APPROXIMATE,ChIJ10fUc75v-TIRgWbtHf4m77c,"administrative_area_level_5,political","Peñaplata (Pob.),Island Garden City of Samal,Davo Del Norte",1,OK
150,112317029,"Poblacion (Kaputian), Kaputian, Davao del Norte, Philippines",Davo Del Norte,6.98039,125.7352283,APPROXIMATE,ChIJ175Nb6tw-TIRlstUZAIrl64,"administrative_area_level_5,political","Poblacion (Kaputian),Island Garden City of Samal,Davo Del Norte",1,OK
151,112317030,"San Agustin, Babak, Island Garden City of Samal, Davao del Norte, Philippines",Davo Del Norte,7.124796,125.7051921,APPROXIMATE,ChIJN1HUNdNo-TIRCk3DllL3S80,"neighborhood,political","San Agustin,Island Garden City of Samal,Davo Del Norte",10,OK
152,112317031,"San Antonio, Babak, Island Garden City of Samal, Davao del Norte, Philippines",Davo Del Norte,7.125435,125.7488774,APPROXIMATE,ChIJ8co5GAVm-TIRWV3l3KP27S8,"neighborhood,political","San Antonio,Island Garden City of Samal,Davo Del Norte",10,OK
153,112317032,"San Isidro (Babak), Babak, Island Garden City of Samal, Davao del Norte, Philippines",Davo Del Norte,7.1714142,125.7133849,APPROXIMATE,ChIJ8YqpBUBo-TIRaAS9MCvleMg,"administrative_area_level_5,political","San Isidro (Babak),Island Garden City of Samal,Davo Del Norte",1,OK
154,112317033,"San Isidro (Kaputian), Kaputian, Island Garden City of Samal, Davao del Norte, Philippines",Davo Del Norte,6.9524875,125.7461477,APPROXIMATE,ChIJ-w36BOR5-TIR7TnL8ovYE1E,"administrative_area_level_5,political","San Isidro (Kaputian),Island Garden City of Samal,Davo Del Norte",1,OK
155,112317034,"Babak Samal Katipunan Road, Samal, Island Garden City of Samal, 8119 Davao del Norte, Philippines",Davo Del Norte,7.0492327,125.7296205,GEOMETRIC_CENTER,ChIJbwSMtOJv-TIR5w4IY31oGZ8,"establishment,food,grocery_or_supermarket,point_of_interest,shopping_mall,store","San Jose (San Lapuz),Island Garden City of Samal,Davo Del Norte",1,OK
156,112317035,"Samal, Island Garden City of Samal, Davao del Norte, Philippines",Davo Del Norte,7.0773951,125.6979167,GEOMETRIC_CENTER,ChIJs2Oju7Jv-TIRUBsYfl_TceA,"establishment,lodging,point_of_interest","San Miguel (Magamono),Island Garden City of Samal,Davo Del Norte",1,OK
157,112317036,"San Remigio, Kaputian, Island Garden City of Samal, Davao del Norte, Philippines",Davo Del Norte,6.9166979,125.770711,APPROXIMATE,ChIJoeXsS2x4-TIRMlkVU9qE1eM,"neighborhood,political","San Remigio,Island Garden City of Samal,Davo Del Norte",1,OK
158,112317037,"Talicud Island, Island Garden City of Samal, 8119 Davao del Norte, Philippines",Davo Del Norte,6.9366067,125.7202321,GEOMETRIC_CENTER,ChIJo3xHy5h3-TIRc83ZkxXPm4k,"establishment,lodging,point_of_interest","Santa Cruz (Talicod II),Island Garden City of Samal,Davo Del Norte",1,OK
159,112317038,"Santo Niño, Babak, Island Garden City of Samal, Davao del Norte, Philippines",Davo Del Norte,7.1163457,125.7243073,APPROXIMATE,ChIJeQYBSkxv-TIROj9UPfGM-l0,"neighborhood,political","Santo Niño,Island Garden City of Samal,Davo Del Norte",1,OK
160,112317039,"Sion (Zion), Kaputian, Island Garden City of Samal, Davao del Norte, Philippines",Davo Del Norte,6.966553,125.7652532,APPROXIMATE,ChIJWTgCtY15-TIRlD5vyha8gBs,"administrative_area_level_5,political","Sion (Zion),Island Garden City of Samal,Davo Del Norte",1,OK
161,112317040,"Tagbaobo, Kaputian, Island Garden City of Samal, Davao del Norte, Philippines",Davo Del Norte,7.0045068,125.7679821,APPROXIMATE,ChIJ9yztnlt6-TIRH_oaHRzXTdo,"neighborhood,political","Tagbaobo,Island Garden City of Samal,Davo Del Norte",1,OK
162,112317041,"Tagbay, Samal, Island Garden City of Samal, Davao del Norte, Philippines",Davo Del Norte,7.0504285,125.7570657,APPROXIMATE,ChIJ_T7ZkDll-TIRP9gjjbzH9Sk,"neighborhood,political","Tagbay,Island Garden City of Samal,Davo Del Norte",1,OK
163,112317042,"Tagbitan-ag, Samal, Island Garden City of Samal, Davao del Norte, Philippines",Davo Del Norte,7.0914145,125.7516069,APPROXIMATE,ChIJrS_O_ZBl-TIRga7OS4B6yy0,"neighborhood,political","Tagbitan-ag,Island Garden City of Samal,Davo Del Norte",1,OK
164,112317043,"Tagdaliao, Samal, Island Garden City of Samal, Davao del Norte, Philippines",Davo Del Norte,7.0918101,125.7215769,APPROXIMATE,ChIJwz6HNXJv-TIRVX_IcX9Rf4g,"neighborhood,political","Tagdaliao,Island Garden City of Samal,Davo Del Norte",1,OK
165,112317044,"Tagpopongan, Babak, Island Garden City of Samal, Davao del Norte, Philippines",Davo Del Norte,7.12551,125.7734398,APPROXIMATE,ChIJhdYY3Ghm-TIRS84KVu2mU5I,"neighborhood,political","Tagpopongan,Island Garden City of Samal,Davo Del Norte",1,OK
166,112317045,"Tambo, Babak, Island Garden City of Samal, Davao del Norte, Philippines",Davo Del Norte,7.1613523,125.6997298,APPROXIMATE,ChIJJ4V8-VVo-TIR__6T6ymQyDc,"neighborhood,political","Tambo,Island Garden City of Samal,Davo Del Norte",1,OK
167,112317046,"Toril, Babak, Island Garden City of Samal, Davao del Norte, Philippines",Davo Del Norte,7.1328439,125.7161156,APPROXIMATE,ChIJqT7Rtcdo-TIRo72ylkteUzY,"neighborhood,political","Toril,Island Garden City of Samal,Davo Del Norte",1,OK
168,112318000,"5485 W Irlo Bronson Memorial Hwy, Kissimmee, FL 34746, USA",Davo Del Norte,28.3336952,-81.5022421,ROOFTOP,ChIJaa5rUOaB3YgRTs_zTgbn_wQ,"establishment,food,point_of_interest,restaurant","SANTO TOMAS,Davo Del Norte",1,OK
169,112318001,"Balagunan, Santo Tomas, Davao del Norte, Philippines",Davo Del Norte,7.4820546,125.5821994,APPROXIMATE,ChIJG5qq2rxK-TIRTP5rctJsex0,"administrative_area_level_5,political","Balagunan,Santos Tomas,Davo Del Norte",1,OK
170,112318002,"Bobongon, Davao del Norte, Philippines",Davo Del Norte,7.5022509,125.5603143,APPROXIMATE,ChIJf7gCUKLK_jIR_rnWxTaCAgg,"administrative_area_level_5,political","Bobongon,Santos Tomas,Davo Del Norte",1,OK
171,112318003,"Santo Tomas, Davao del Norte, Philippines",Davo Del Norte,7.5092887,125.6314191,APPROXIMATE,ChIJQ3T-FC9L-TIRaDJsi-aQYE4,"locality,political","Esperanza,Santos Tomas,Davo Del Norte",1,OK
172,112318004,"Kimamon, Davao del Norte, Philippines",Davo Del Norte,7.5465776,125.694267,APPROXIMATE,ChIJA4dnmsyz_jIRkXe5L8UCEKE,"administrative_area_level_5,political","Kimamon,Santos Tomas,Davo Del Norte",1,OK
173,112318005,"Kinamayan, Santo Tomas, Davao del Norte, Philippines",Davo Del Norte,7.5102736,125.6696802,APPROXIMATE,ChIJV8yM52yz_jIR_0Txjw1zi-c,"administrative_area_level_5,political","Kinamayan,Santos Tomas,Davo Del Norte",1,OK
174,112318006,"La Libertad, Santo Tomas, Davao del Norte, Philippines",Davo Del Norte,7.4941445,125.6478189,APPROXIMATE,ChIJu4qt2FZL-TIRErsRtlc0RDE,"administrative_area_level_5,political","La Libertad,Santos Tomas,Davo Del Norte",1,OK
175,112318007,"Lungaog, Davao del Norte, Philippines",Davo Del Norte,7.5364741,125.7051921,APPROXIMATE,ChIJw1eKiDWy_jIR-5RjomB2Au4,"administrative_area_level_5,political","Lungaog,Santos Tomas,Davo Del Norte",1,OK
176,112318008,"Magwawa, Davao del Norte, Philippines",Davo Del Norte,7.5517884,125.5165264,APPROXIMATE,ChIJQwv4ybbL_jIRGXpoC0QC56s,"administrative_area_level_5,political","Magwawa,Santos Tomas,Davo Del Norte",1,OK
177,112318009,"New Katipunan, Davao del Norte, Philippines",Davo Del Norte,7.5556916,125.6696802,APPROXIMATE,ChIJq0YJadCz_jIRjZXakSP5PAQ,"administrative_area_level_5,political","New Katipunan,Santos Tomas,Davo Del Norte",1,OK
178,112318010,"Pantaron, Santo Tomas, Davao del Norte, Philippines",Davo Del Norte,7.5314716,125.6614829,APPROXIMATE,ChIJA4hs-oSz_jIR0wFh6Q5aTCs,"administrative_area_level_5,political","Pantaron,Santos Tomas,Davo Del Norte",1,OK
179,112318011,"Tibal-og (Pob.), Davao del Norte, Philippines",Davo Del Norte,7.5325111,125.6259517,APPROXIMATE,ChIJCV7FQPW0_jIRagLjYdqf3GE,"administrative_area_level_5,political","Tibal-og (Pob.),Santos Tomas,Davo Del Norte",1,OK
180,112318013,"San Jose, CA, USA",Davo Del Norte,37.3382082,-121.8863286,APPROXIMATE,ChIJ9T_5iuTKj4ARe3GfygqMnbk,"locality,political","San Jose,Santos Tomas,Davo Del Norte",2,OK
182,112318015,"Talomo, Davao del Norte, Philippines",Davo Del Norte,7.5243597,125.7133849,APPROXIMATE,ChIJn23Fn0Sy_jIRkpJku8dDFx0,"administrative_area_level_5,political","Talomo,Santos Tomas,Davo Del Norte",1,OK
183,112318016,"Casig-Ang, Santo Tomas, Davao del Norte, Philippines",Davo Del Norte,7.4749768,125.6587503,APPROXIMATE,ChIJMxH7aKRM-TIRuP5XPUmgRTU,"administrative_area_level_5,political","Casig-Ang,Santos Tomas,Davo Del Norte",1,OK
184,112318017,"New Visayas, Santo Tomas, Davao del Norte, Philippines",Davo Del Norte,7.520432,125.5603143,APPROXIMATE,ChIJQf8oRH61_jIRHFUEK3YHmBQ,"administrative_area_level_5,political","New Visayas,Santos Tomas,Davo Del Norte",1,OK
185,112318018,"Davao City, Davao del Sur, Philippines",Davo Del Norte,7.190708,125.455341,APPROXIMATE,ChIJfzKeUZ9t-TIRc8V5n1gkOrU,"locality,political","Salvacion,Santos Tomas,Davo Del Norte",1,OK
186,112318019,"San Vicente, Davao del Norte, Philippines",Davo Del Norte,7.4865516,125.7051921,APPROXIMATE,ChIJF_5kFtKy_jIR1dKWg3rAwWs,"administrative_area_level_5,political","San Vicente,Santos Tomas,Davo Del Norte",1,OK
187,112318020,"Tulalian, Santo Tomas, Davao del Norte, Philippines",Davo Del Norte,7.4638898,125.5821994,APPROXIMATE,ChIJu3XYfo5K-TIRuBNO1nMECzA,"administrative_area_level_5,political","Tulalian,Santos Tomas,Davo Del Norte",1,OK
188,112319000,"Tagum, Davao del Norte, Philippines",Davo Del Norte,7.4471733,125.8093465,APPROXIMATE,ChIJE38TLoVR-TIRhnyWEYTsPME,"locality,political","CITY OF TAGUM,Davo Del Norte",1,OK
189,112319001,"Apokon, Tagum, Davao del Norte, Philippines",Davo Del Norte,7.4235696,125.8225419,APPROXIMATE,ChIJP85ISIpT-TIRvBzcXfrX9gA,"neighborhood,political","Apokon,Tagum,Davo Del Norte",1,OK
190,112319003,"Bincungan, Tagum, Davao del Norte, Philippines",Davo Del Norte,7.3773051,125.7597949,APPROXIMATE,ChIJdaz0cchR-TIRN1gGoVaa3_w,"neighborhood,political","Bincungan,Tagum,Davo Del Norte",1,OK
191,112319004,"Busaon, Tagum, Davao del Norte, Philippines",Davo Del Norte,7.3481487,125.7570657,APPROXIMATE,ChIJ_b-reAVQ-TIR-P5B9vtI5Gs,"neighborhood,political","Busaon,Tagum,Davo Del Norte",1,OK
192,112319005,"Pan-Philippine Hwy, Tagum, Davao del Norte, Philippines",Davo Del Norte,7.4168146,125.7862473,GEOMETRIC_CENTER,ChIJb8TgksxT-TIRtP4wcRdIAI8,"car_dealer,establishment,point_of_interest,store","Canocotan,Tagum,Davo Del Norte",1,OK
193,112319006,"Cuambogan, Tagum, Davao del Norte, Philippines",Davo Del Norte,7.4990836,125.7898106,APPROXIMATE,ChIJNUm-leKs_jIRdgfPBZbwpQI,"neighborhood,political","Cuambogan,Tagum,Davo Del Norte",1,OK
194,112319007,"La Filipina, Tagum, Davao del Norte, Philippines",Davo Del Norte,7.4779255,125.7979947,APPROXIMATE,ChIJ6884TDNT-TIRZxavpAMp0Yo,"neighborhood,political","La Filipina,Tagum,Davo Del Norte",1,OK
195,112319008,"Liboganon, Tagum, Davao del Norte, Philippines",Davo Del Norte,7.3486644,125.7761685,APPROXIMATE,ChIJP_QDOEFQ-TIReLVerjb5X_8,"neighborhood,political","Liboganon,Tagum,Davo Del Norte",1,OK
196,112319009,"Madaum, Tagum, Davao del Norte, Philippines",Davo Del Norte,7.3923999,125.8170876,APPROXIMATE,ChIJn8Pd7T5R-TIR39f3i7jprMs,"neighborhood,political","Madaum,Tagum,Davo Del Norte",1,OK
197,112319010,"Magdum, Davao del Norte, Philippines",Davo Del Norte,7.4768894,125.8334494,APPROXIMATE,ChIJ8_ahJVKr_jIRkvLA_TXqINY,"administrative_area_level_5,political","Magdum,Tagum,Davo Del Norte",1,OK
198,112319011,"Mankilam, Tagum, Davao del Norte, Philippines",Davo Del Norte,7.4688792,125.7734398,APPROXIMATE,ChIJJV1MndtS-TIR-Aj0cnGowRk,"neighborhood,political","Mankilam,Tagum,Davo Del Norte",1,OK
199,112319012,"New Balamban, Tagum, Davao del Norte, Philippines",Davo Del Norte,7.5121163,125.8443554,APPROXIMATE,ChIJO9Y2oJ-r_jIRHyHSNv6VvNM,"administrative_area_level_5,political","New Balamban,Tagum,Davo Del Norte",1,OK
200,112319013,"Nueva Fuerza, Tagum, Davao del Norte, Philippines",Davo Del Norte,7.5061124,125.811633,APPROXIMATE,ChIJmTn3_4us_jIRa9gneZ4QrkI,"administrative_area_level_5,political","Nueva Fuerza,Tagum,Davo Del Norte",1,OK
201,112319014,"Pagsabangan, Tagum, Davao del Norte, Philippines",Davo Del Norte,7.4839991,125.7570657,APPROXIMATE,ChIJqX9vI06t_jIRLiFdcAGlePk,"neighborhood,political","Pagsabangan,Tagum,Davo Del Norte",1,OK
202,112319015,"Pandapan, Tagum, Davao del Norte, Philippines",Davo Del Norte,7.4854154,125.8634372,APPROXIMATE,ChIJfeK7ciSr_jIRuJw_BhQYAWM,"neighborhood,political","Pandapan,Tagum,Davo Del Norte",1,OK
203,112319016,"Magugpo Poblacion, Tagum, Davao del Norte, Philippines",Davo Del Norte,7.4487265,125.8075417,APPROXIMATE,ChIJpdQj73JT-TIRir1AWa-pV-Y,"neighborhood,political","Magugpo Poblacion,Tagum,Davo Del Norte",1,OK
204,112319018,"San Agustin, Tagum, Davao del Norte, Philippines",Davo Del Norte,7.5020622,125.8307227,APPROXIMATE,ChIJ_S4wNnyr_jIRv1Vey9OhXso,"administrative_area_level_5,political","San Agustin,Tagum,Davo Del Norte",1,OK
205,112319019,"San Isidro, Tagum, Davao del Norte, Philippines",Davo Del Norte,7.3913894,125.7788971,APPROXIMATE,ChIJM93SzqNR-TIRFTpfSfjsHGU,"neighborhood,political","San Isidro,Tagum,Davo Del Norte",1,OK
206,112319020,"San Miguel (Camp 4), Tagum, Davao del Norte, Philippines",Davo Del Norte,7.4376703,125.7679821,APPROXIMATE,ChIJf4LIDFhS-TIRamAgXltYPEY,"administrative_area_level_5,political","San Miguel (Camp 4),Tagum,Davo Del Norte",1,OK
207,112319022,"Visayan Village, Tagum, Davao del Norte, Philippines",Davo Del Norte,7.4175409,125.7898106,APPROXIMATE,ChIJWQZZvEpS-TIR2GPFFDdRmao,"administrative_area_level_5,political","Visayan Village,Tagum,Davo Del Norte",1,OK
208,112319023,"Magugpo East, Davao del Norte, Philippines",Davo Del Norte,7.4527419,125.8252689,APPROXIMATE,ChIJ-_OfzWBT-TIRzCk7XQ_h4aY,"administrative_area_level_5,political","Magugpo East,Tagum,Davo Del Norte",1,OK
209,112319024,"Magugpo North, Tagum, Davao del Norte, Philippines",Davo Del Norte,7.4668349,125.8198148,APPROXIMATE,ChIJCTx3BlFT-TIRkeeVGfBAEGk,"administrative_area_level_5,political","Magugpo North,Tagum,Davo Del Norte",1,OK
210,112319025,"Magugpo South, Tagum, Davao del Norte, Philippines",Davo Del Norte,7.446215,125.7979947,APPROXIMATE,ChIJfU-XLBBT-TIRW-mb_ewupbU,"neighborhood,political","Magugpo South,Tagum,Davo Del Norte",1,OK
211,112319026,"Magugpo West, Tagum, Davao del Norte, Philippines",Davo Del Norte,7.4592965,125.8034503,APPROXIMATE,ChIJjeG-zD9T-TIRKOjPvdDqrA8,"neighborhood,political","Magugpo West,Tagum,Davo Del Norte",1,OK
212,112322000,"Talaingod, Davao del Norte, Philippines",Davo Del Norte,7.6833875,125.5220012,APPROXIMATE,ChIJ3cAeKKfF_jIRfOAlA5-9xGU,"administrative_area_level_3,political","TALAINGOD,Davo Del Norte",1,OK
213,112322001,"Dagohoy, Davao del Norte, Philippines",Davo Del Norte,7.7360549,125.5438967,APPROXIMATE,ChIJA1kM1yHB_jIRFZpW9rMABC4,"administrative_area_level_5,political","Dagohoy,Talaingod,Davo Del Norte",1,OK
214,112322002,"Palma Gil, Davao del Norte, Philippines",Davo Del Norte,7.667214,125.5000999,APPROXIMATE,ChIJYf7da03G_jIRT6JVCFtH0cs,"administrative_area_level_5,political","Palma Gil,Talaingod,Davo Del Norte",10,OK
215,112322003,"Santo Nino, Davao del Norte, Philippines",Davo Del Norte,7.6024756,125.4124355,APPROXIMATE,ChIJy3PjV_bO_jIRC79ofkB7CPo,"administrative_area_level_5,political","Santo Niño,Talaingod,Davo Del Norte",1,OK
216,112323000,"Braulio E. Dujali, Davao del Norte, Philippines",Davo Del Norte,7.4568198,125.7079231,APPROXIMATE,ChIJ9544V1BM-TIR1Ki7ocs4LG8,"locality,political","BRAULIO E. DUJALI,Davo Del Norte",1,OK
217,112323001,"Cabayangan, Braulio E. Dujali, Davao del Norte, Philippines",Davo Del Norte,7.4417066,125.7243073,APPROXIMATE,ChIJ0W0lDp9N-TIRw0Lk8OH_9yA,"neighborhood,political","Cabay-Angan,Braulio E. Dujali,Davo Del Norte",1,OK
218,112323002,"Braulio E. Dujali, Davao del Norte, Philippines",Davo Del Norte,7.4568198,125.7079231,APPROXIMATE,ChIJ9544V1BM-TIR1Ki7ocs4LG8,"locality,political","Dujali,Braulio E. Dujali,Davo Del Norte",1,OK
219,112323003,"Magupising, Davao del Norte, Philippines",Davo Del Norte,7.4547987,125.729768,APPROXIMATE,ChIJcR-axqBN-TIRuqpolJ8ug-4,"administrative_area_level_5,political","Magupising,Braulio E. Dujali,Davo Del Norte",1,OK
220,112323004,"Braulio E. Dujali, Davao del Norte, Philippines",Davo Del Norte,7.4262863,125.699559,GEOMETRIC_CENTER,ChIJ0ThDectN-TIRYyg8MBuDNx0,"establishment,premise,primary_school,school","New Casay,Braulio E. Dujali,Davo Del Norte",1,OK
221,112323005,"Tanglaw, Davao del Norte, Philippines",Davo Del Norte,7.4275876,125.606813,APPROXIMATE,ChIJ3QHacixK-TIRt3g8W8HDOwg,"administrative_area_level_5,political","Tanglaw,Braulio E. Dujali,Davo Del Norte",1,OK
222,112324000,"Davao City, Davao del Sur, Philippines",Davo Del Norte,7.190708,125.455341,APPROXIMATE,ChIJfzKeUZ9t-TIRc8V5n1gkOrU,"locality,political","SAN ISIDRO,Davo Del Norte",1,OK
223,112324001,"Dacudao, San Isidro, Davao del Norte, Philippines",Davo Del Norte,7.7913877,125.6806086,APPROXIMATE,ChIJ86juqxSW_jIRjibl0yxBgDE,"administrative_area_level_5,political","Dacudao,San Isidro,Davo Del Norte",1,OK
224,112324002,"Datu Balong, Davao del Norte, Philippines",Davo Del Norte,7.8198208,125.6696802,APPROXIMATE,ChIJp6rl6HyW_jIRPEyqSKbscVo,"administrative_area_level_5,political","Datu Balong,San Isidro,Davo Del Norte",1,OK
225,112324003,"Igangon, Davao del Norte, Philippines",Davo Del Norte,7.7020324,125.7570657,APPROXIMATE,ChIJhRZFz6ik_jIRvPeyloCAjtc,"administrative_area_level_5,political","Igangon,San Isidro,Davo Del Norte",1,OK
226,112324004,"Kipalili, Davao del Norte, Philippines",Davo Del Norte,7.6823378,125.7488774,APPROXIMATE,ChIJx4RP58Wk_jIREmOYggRBCXw,"administrative_area_level_5,political","Kipalili,San Isidro,Davo Del Norte",1,OK
228,112324006,"Linao, San Isidro, Davao del Norte, Philippines",Davo Del Norte,7.771041,125.702461,APPROXIMATE,ChIJe5Z-M3-9_jIRcl1OO2NQnKg,"administrative_area_level_5,political","Linao,San Isidro,Davo Del Norte",1,OK
230,112324008,"Monte Dujali, Davao del Norte, Philippines",Davo Del Norte,7.8837551,125.6696802,APPROXIMATE,ChIJrYRAo3CR_jIR9wpWcHM8w_Q,"administrative_area_level_5,political","Monte Dujali,San Isidro,Davo Del Norte",2,OK
231,112324009,"Pinamuno, Davao del Norte, Philippines",Davo Del Norte,7.8268325,125.6915355,APPROXIMATE,ChIJ8bKIqy6R_jIR46kp03h7QAY,"administrative_area_level_5,political","Pinamuno,San Isidro,Davo Del Norte",1,OK
233,112324011,"Santo Tomas, Davao del Norte, Philippines",Davo Del Norte,7.5092887,125.6314191,APPROXIMATE,ChIJQ3T-FC9L-TIRaDJsi-aQYE4,"locality,political","San Miguel,San Isidro,Davo Del Norte",1,OK
234,112324012,"Santo Tomas, Davao del Norte, Philippines",Davo Del Norte,7.5092887,125.6314191,APPROXIMATE,ChIJQ3T-FC9L-TIRaDJsi-aQYE4,"locality,political","Santo Niño,San Isidro,Davo Del Norte",1,OK
235,112324013,"San Isidro, Davao del Norte, Philippines",Davo Del Norte,7.7599905,125.6751446,APPROXIMATE,ChIJ4RmRh6O9_jIRdoi6zkewS7E,"locality,political","Sawata,San Isidro,Davo Del Norte",1,OK
236,112400000,"Davao del Sur, Philippines",,6.7662687,125.3284269,APPROXIMATE,ChIJ40AP8j5s9zIRqd8MaWdSFxo,"administrative_area_level_2,political",DAVAO DEL SUR,1,OK
237,112401000,"Bansalan, Davao del Sur, Philippines",Davao Del Sur,6.7908497,125.2055655,APPROXIMATE,ChIJ2yH2dUpN-DIRV9L9sxLZ7Tw,"locality,political","BANSALAN,Davao Del Sur",1,OK
238,112401001,"Alegre, Bansalan, Davao del Sur, Philippines",Davao Del Sur,6.8370246,125.1983598,APPROXIMATE,ChIJ31_7UthS-DIRnVNeMU2ZA_Y,"administrative_area_level_5,political","Alegre,Bansalan,Davao Del Sur",1,OK
239,112401002,"Alta Vista, Bansalan, Davao del Sur, Philippines",Davao Del Sur,6.8832229,125.2120993,APPROXIMATE,ChIJtd616rNU-DIRn-PLbUNg24s,"administrative_area_level_5,political","Alta Vista,Bansalan,Davao Del Sur",1,OK
240,112401003,"Anonang, Bansalan, Davao del Sur, Philippines",Davao Del Sur,6.8097258,125.2285836,APPROXIMATE,ChIJ58jxpV6t-TIR7XD5PU9WvdY,"administrative_area_level_5,political","Anonang,Bansalan,Davao Del Sur",1,OK
241,112401004,"Bitaug, Bansalan, Davao del Sur, Philippines",Davao Del Sur,6.8246126,125.2120993,APPROXIMATE,ChIJv79EkMpS-DIRa8RNawW5fUo,"administrative_area_level_5,political","Bitaug,Bansalan,Davao Del Sur",1,OK
242,112401005,"Bonifacio, Bansalan, Davao del Sur, Philippines",Davao Del Sur,6.8083553,125.2450647,APPROXIMATE,ChIJG_dkC2St-TIRgE6F9q0HCSA,"administrative_area_level_5,political","Bonifacio,Bansalan,Davao Del Sur",1,OK
243,112401006,"Buenavista, Bansalan, Davao del Sur, Philippines",Davao Del Sur,6.7921682,125.2230892,APPROXIMATE,ChIJ_VKZw7Gy-TIR4pbr5ETx3Yo,"administrative_area_level_5,political","Buenavista,Bansalan,Davao Del Sur",1,OK
244,112401007,"Darapuay, Davao del Sur, Philippines",Davao Del Sur,6.8976819,125.2011079,APPROXIMATE,ChIJfwLZ18JU-DIRPFr7kzEA_Lk,"administrative_area_level_5,political","Darapuay,Bansalan,Davao Del Sur",1,OK
245,112401008,"Dolo, Davao del Sur, Philippines",Davao Del Sur,6.7919659,125.1983598,APPROXIMATE,ChIJNd7cAEdN-DIRjizcr9zxKmE,"administrative_area_level_5,political","Dolo,Bansalan,Davao Del Sur",1,OK
246,112401009,"Eman, Bansalan, Davao del Sur, Philippines",Davao Del Sur,6.8580025,125.1901151,APPROXIMATE,ChIJK7dlPT5T-DIRladbeCiZduw,"administrative_area_level_5,political","Eman,Bansalan,Davao Del Sur",1,OK
247,112401010,"Kinuskusan, Davao del Sur, Philippines",Davao Del Sur,6.8740196,125.1873666,APPROXIMATE,ChIJkxxgrmNT-DIRvF9il9kHC6E,"administrative_area_level_5,political","Kinuskusan,Bansalan,Davao Del Sur",1,OK
248,112401011,"Libertad, Bansalan, Davao del Sur, Philippines",Davao Del Sur,6.8065913,125.2120993,APPROXIMATE,ChIJzxlANatS-DIRdHJXAphxF28,"administrative_area_level_5,political","Libertad,Bansalan,Davao Del Sur",1,OK
249,112401012,"Linawan, Bansalan, Davao del Sur, Philippines",Davao Del Sur,6.8114537,125.1942376,APPROXIMATE,ChIJEVIXXqJS-DIRiZVpxEK2OtM,"administrative_area_level_5,political","Linawan,Bansalan,Davao Del Sur",1,OK
250,112401013,"Mabuhay, Bansalan, Davao del Sur, Philippines",Davao Del Sur,6.7692045,125.2285836,APPROXIMATE,ChIJW1UWBtiy-TIRXlEU71oJOe8,"neighborhood,political","Mabuhay,Bansalan,Davao Del Sur",1,OK
251,112401014,"Mabunga, Bansalan, Davao del Sur, Philippines",Davao Del Sur,6.754134,125.2203419,APPROXIMATE,ChIJodmyZEmz-TIRgE1RDYAoVE0,"administrative_area_level_5,political","Mabunga,Bansalan,Davao Del Sur",1,OK
252,112401015,"Managa, Bansalan, Davao del Sur, Philippines",Davao Del Sur,6.8353809,125.2450647,APPROXIMATE,ChIJbfOpwOOs-TIRLtf3Nrj4T3M,"administrative_area_level_5,political","Managa,Bansalan,Davao Del Sur",1,OK
253,112401016,"Marber, Bansalan, Davao del Sur, Philippines",Davao Del Sur,6.832011,125.176201,APPROXIMATE,ChIJsSsI1fZS-DIRhoeTh8J82pc,"neighborhood,political","Marber,Bansalan,Davao Del Sur",1,OK
254,112401017,"New Clarin (Miral), Bansalan, Davao del Sur, Philippines",Davao Del Sur,6.7440163,125.2066038,APPROXIMATE,ChIJx9XfZ7BM-DIRxkMkCfm4-gE,"administrative_area_level_5,political","New Clarin (Miral),Bansalan,Davao Del Sur",1,OK
255,112401018,"Poblacion, Bansalan, Davao del Sur, Philippines",Davao Del Sur,6.7737054,125.2285836,APPROXIMATE,ChIJm4tW_Nqy-TIRYOfPQYCi4OU,"administrative_area_level_5,political","Poblacion,Bansalan,Davao Del Sur",1,OK
256,112401019,"Rizal, Bansalan, Davao del Sur, Philippines",Davao Del Sur,6.7714748,125.2011079,APPROXIMATE,ChIJq_Hi_idN-DIRh8dTvK25k1E,"administrative_area_level_5,political","Rizal,Bansalan,Davao Del Sur",1,OK
257,112401020,"Santo Nino, Davao del Sur, Philippines",Davao Del Sur,6.8219356,125.1901151,APPROXIMATE,ChIJB9pjxpVS-DIRe-lRnS9Z7Mw,"administrative_area_level_5,political","Santo Niño,Bansalan,Davao Del Sur",1,OK
258,112401021,"Sibayan, Davao del Sur, Philippines",Davao Del Sur,6.8874487,125.2423181,APPROXIMATE,ChIJ_WHD8Gmr-TIRK9i50zjpm3I,"administrative_area_level_5,political","Sibayan,Bansalan,Davao Del Sur",1,OK
259,112401022,"Tinongtongan, Davao del Sur, Philippines",Davao Del Sur,6.8773285,125.2285836,APPROXIMATE,ChIJ0YR9Gk6r-TIRjkGTqwFXOlw,"administrative_area_level_5,political","Tinongtongan,Bansalan,Davao Del Sur",1,OK
260,112401023,"Tubod, Bansalan, Davao del Sur, Philippines",Davao Del Sur,6.7975829,125.2120993,APPROXIMATE,ChIJKVGObE1N-DIR8hHwHGw-Qjk,"administrative_area_level_5,political","Tubod,Bansalan,Davao Del Sur",1,OK
261,112401024,"Union, Bansalan, Davao del Sur, Philippines",Davao Del Sur,6.7867549,125.2340777,APPROXIMATE,ChIJ2wkbfL6y-TIROTracrXzH8s,"administrative_area_level_5,political","Union,Bansalan,Davao Del Sur",1,OK
262,112401025,"Poblacion Dos, Bansalan, Davao del Sur, Philippines",Davao Del Sur,6.7840732,125.2120993,APPROXIMATE,ChIJY0cQD0pN-DIR3YwoBdD78V4,"neighborhood,political","Poblacion Dos,Bansalan,Davao Del Sur",1,OK
263,112402000,"Davao City, Davao del Sur, Philippines",Davao Del Sur,7.190708,125.455341,APPROXIMATE,ChIJfzKeUZ9t-TIRc8V5n1gkOrU,"locality,political","CITY OF DAVAO,Davao Del Sur",1,OK
264,112402001,"Acacia, Talomo, Davao City, Davao del Sur, Philippines",Davao Del Sur,7.0578628,125.5978375,GEOMETRIC_CENTER,ChIJw4yZO51y-TIRrpF3uETjFJA,route,"Acacia,Davao,Davao Del Sur",1,OK
265,112402002,"Agdao, Davao City, Davao del Sur, Philippines",Davao Del Sur,7.090103,125.6325243,APPROXIMATE,ChIJPYouUbht-TIRqLJeH_nmbEQ,"political,sublocality,sublocality_level_1","Agdao,Davao,Davao Del Sur",1,OK
266,112402003,"Alambre, Toril, Davao City, Davao del Sur, Philippines",Davao Del Sur,7.0651896,125.4590189,APPROXIMATE,ChIJE8L13hEO-TIRFAGsfzF5y9Y,"neighborhood,political","Alambre,Davao,Davao Del Sur",1,OK
267,112402004,"Atan-awe, Davao City, Davao del Sur, Philippines",Davao Del Sur,7.0013535,125.3356518,APPROXIMATE,ChIJaVW-d4UG-TIRdUTd7ULECOA,"administrative_area_level_5,political","Atan-Awe,Davao,Davao Del Sur",1,OK
268,112402005,"Bago Gallera, Talomo, Davao City, Davao del Sur, Philippines",Davao Del Sur,7.0509271,125.5192639,APPROXIMATE,ChIJm4C4aZ4N-TIReayog3cX2CU,"neighborhood,political","Bago Gallera,Davao,Davao Del Sur",1,OK
269,112402006,"Bago Oshiro, Tugbok, Davao City, Davao del Sur, Philippines",Davao Del Sur,7.0633957,125.5055758,APPROXIMATE,ChIJT4Jf0_QN-TIRD9yiGQ5Im5g,"neighborhood,political","Bago Oshiro,Davao,Davao Del Sur",1,OK
270,112402007,"Baguio (Pob.), Davao City, Davao del Sur, Philippines",Davao Del Sur,7.1744264,125.3987294,APPROXIMATE,ChIJrZ93R2QX-TIRU9ySLuK6m9E,"administrative_area_level_5,political","Baguio (Pob.),Davao,Davao Del Sur",1,OK
271,112402009,"Balengaeng, Tugbok, Davao City, Davao del Sur, Philippines",Davao Del Sur,7.132944,125.4590189,APPROXIMATE,ChIJC7w4wUcR-TIRE4Wr_MVDyS0,"neighborhood,political","Balengaeng,Davao,Davao Del Sur",1,OK
272,112402010,"Baliok, Talomo, Davao City, Davao del Sur, Philippines",Davao Del Sur,7.0453561,125.4995779,APPROXIMATE,ChIJ9y-9ssAN-TIRsFQbRNz87p8,"neighborhood,political","Baliok,Davao,Davao Del Sur",1,OK
273,112402012,"Bangkas Heights, Toril, Davao City, Davao del Sur, Philippines",Davao Del Sur,7.0537829,125.4864085,APPROXIMATE,ChIJV07Xm-cN-TIRZzfBxNNOLOU,"neighborhood,political","Bangkas Heights,Davao,Davao Del Sur",1,OK
274,112402013,"Baracatan, Toril, Davao City, Davao del Sur, Philippines",Davao Del Sur,6.978271,125.420658,APPROXIMATE,ChIJRYV5me8I-TIRhwIhFVOK7r4,"neighborhood,political","Baracatan,Davao,Davao Del Sur",1,OK
275,112402014,"Bato, Toril, Davao City, Davao del Sur, Philippines",Davao Del Sur,7.0376365,125.4644976,APPROXIMATE,ChIJIYUatGIO-TIRX37EZVPwp_0,"neighborhood,political","Bato,Davao,Davao Del Sur",1,OK
276,112402015,"Bayabas, Toril, Davao City, Davao del Sur, Philippines",Davao Del Sur,7.0239783,125.4398407,APPROXIMATE,ChIJderxauMO-TIRTkFHFAnrprU,"neighborhood,political","Bayabas,Davao,Davao Del Sur",1,OK
277,112402016,"Biao Escuela, Tugbok, Davao City, Davao del Sur, Philippines",Davao Del Sur,7.1617787,125.5165264,APPROXIMATE,ChIJifD50V4U-TIRuks1X6GMn-o,"neighborhood,political","Biao Escuela,Davao,Davao Del Sur",1,OK
278,112402017,"Biao Guianga, Tugbok, Davao City, Davao del Sur, Philippines",Davao Del Sur,7.1476512,125.4973618,APPROXIMATE,ChIJfTZ-_BIU-TIR2c7EkZ9rLzQ,"neighborhood,political","Biao Guianga,Davao,Davao Del Sur",1,OK
279,112402018,"Biao Joaquin, Calinan District, Davao City, Davao del Sur, Philippines",Davao Del Sur,7.181797,125.4946236,APPROXIMATE,ChIJu0uxv84V-TIRYdHxHSUkGYc,"neighborhood,political","Biao Joaquin,Davao,Davao Del Sur",1,OK
280,112402019,"Binugao, Toril, Davao City, Davao del Sur, Philippines",Davao Del Sur,6.9735681,125.4754538,APPROXIMATE,ChIJQywHxmIJ-TIRZBAenqudt6k,"neighborhood,political","Binugao,Davao,Davao Del Sur",1,OK
281,112402020,"Bucana, Talomo, Davao City, Davao del Sur, Philippines",Davao Del Sur,7.0538829,125.5987892,APPROXIMATE,ChIJOyD134Ry-TIRPUnrhW-mzqs,"neighborhood,political","Bucana,Davao,Davao Del Sur",1,OK
282,112402021,"Buhangin (Pob.), Davao City, Davao del Sur, Philippines",Davao Del Sur,7.1079514,125.6150159,APPROXIMATE,ChIJtR7EdPVs-TIRA54WlfsuPco,"administrative_area_level_5,political","Buhangin (Pob.),Davao,Davao Del Sur",1,OK
283,112402022,"Bunawan (Pob.), Bunawan, Davao City, Davao del Sur, Philippines",Davao Del Sur,7.2254024,125.6396194,APPROXIMATE,ChIJE9y1DoJB-TIReb849TZ784s,"administrative_area_level_5,political","Bunawan (Pob.),Davao,Davao Del Sur",1,OK
284,112402023,"Cabantian, Buhangin, Davao City, Davao del Sur, Philippines",Davao Del Sur,7.1290426,125.6173322,APPROXIMATE,ChIJtz09W4hr-TIRgnotHJ8zREs,"neighborhood,political","Cabantian,Davao,Davao Del Sur",1,OK
285,112402024,"Cadalian, Davao City, Davao del Sur, Philippines",Davao Del Sur,7.1471791,125.3740526,APPROXIMATE,ChIJ7Qa6Rhwa-TIREnv42LERp1w,"neighborhood,political","Cadalian,Davao,Davao Del Sur",1,OK
286,112402026,"Calinan (Pob.), Davao City, Davao del Sur, Philippines",Davao Del Sur,7.1917314,125.4590189,APPROXIMATE,ChIJyWdEaV0W-TIRSfT2TDKuhtY,"administrative_area_level_5,political","Calinan (Pob.),Davao,Davao Del Sur",1,OK
287,112402027,"Callawa, Buhangin, Davao City, Davao del Sur, Philippines",Davao Del Sur,7.2111659,125.5712576,APPROXIMATE,ChIJ3eTGvf0_-TIRM5otd2yDDyo,"neighborhood,political","Callawa,Davao,Davao Del Sur",1,OK
288,112402028,"Camansi, Toril, Davao City, Davao del Sur, Philippines",Davao Del Sur,7.0851591,125.4371006,APPROXIMATE,ChIJRyWcfM0R-TIRiuXRJ7N3QYw,"neighborhood,political","Camansi,Davao,Davao Del Sur",1,OK
289,112402029,"Carmen, Davao del Norte, Philippines",Davao Del Sur,7.3682098,125.6860723,APPROXIMATE,ChIJ1xqW9JhP-TIRTolgN0b-0E4,"locality,political","Carmen,Davao,Davao Del Sur",1,OK
290,112402030,"Catalunan Grande, Talomo, Davao City, Davao del Sur, Philippines",Davao Del Sur,7.0876016,125.5384234,APPROXIMATE,ChIJM6jOLfAS-TIRNQDH2BypLk8,"neighborhood,political","Catalunan Grande,Davao,Davao Del Sur",1,OK
291,112402031,"Catalunan Pequeño, Talomo, Davao City, Davao del Sur, Philippines",Davao Del Sur,7.073005,125.5247385,APPROXIMATE,ChIJUwvYzIcS-TIRwVkx0OMGgaQ,"neighborhood,political","Catalunan Pequeño,Davao,Davao Del Sur",1,OK
292,112402032,"Catigan, Toril, Davao City, Davao del Sur, Philippines",Davao Del Sur,7.0078227,125.4179172,APPROXIMATE,ChIJfY5SXzQP-TIRjGHXd7ZLJ2Q,"neighborhood,political","Catigan,Davao,Davao Del Sur",1,OK
293,112402033,"Cawayan, Calinan District, Davao City, Davao del Sur, Philippines",Davao Del Sur,7.1533411,125.4069533,APPROXIMATE,ChIJtaSJjEkX-TIRcqvMPTtPvNU,"neighborhood,political","Cawayan,Davao,Davao Del Sur",1,OK
294,112402034,"Colosas, Davao City, Philippines",Davao Del Sur,7.5214642,125.5000999,APPROXIMATE,ChIJjcvTVDDL_jIRIDgv8yZSTIU,"neighborhood,political","Colosas,Davao,Davao Del Sur",1,OK
295,112402035,"Communal, Buhangin, Davao City, Davao del Sur, Philippines",Davao Del Sur,7.1430787,125.6259517,APPROXIMATE,ChIJi8zga5Nr-TIRbsTvzjPW4vQ,"neighborhood,political","Communal,Davao,Davao Del Sur",1,OK
296,112402036,"Crossing Bayabas, Toril, Davao City, Davao del Sur, Philippines",Davao Del Sur,7.0225062,125.4959927,APPROXIMATE,ChIJ-QmbhjkM-TIRL-rnUZ2ZnR4,"neighborhood,political","Crossing Bayabas,Davao,Davao Del Sur",1,OK
297,112402037,"Dacudao, Calinan District, Davao City, Davao del Sur, Philippines",Davao Del Sur,7.2199317,125.4727149,APPROXIMATE,ChIJLxp8u_s9-TIRRcrUo4EvdcY,"neighborhood,political","Dacudao,Davao,Davao Del Sur",1,OK
298,112402038,"Dalag, Davao City, Davao del Sur, Philippines",Davao Del Sur,7.2505563,125.2807624,APPROXIMATE,ChIJX0-0OGkh-TIREcvIPpkqYKA,"administrative_area_level_5,political","Dalag,Davao,Davao Del Sur",1,OK
299,112402039,"Dalagdag, Calinan District, Davao City, Davao del Sur, Philippines",Davao Del Sur,7.2466712,125.5028379,APPROXIMATE,ChIJMZ7hb1w--TIRa3uuUyFNXXc,"neighborhood,political","Dalagdag,Davao,Davao Del Sur",1,OK
300,112402040,"Daliao, Toril, Davao City, Davao del Sur, Philippines",Davao Del Sur,7.0125423,125.5069447,APPROXIMATE,ChIJ_SSofkIM-TIRLGRjWS9tnXQ,"neighborhood,political","Daliao,Davao,Davao Del Sur",1,OK
301,112402041,"Daliaon Plantation, Toril, Davao City, Davao del Sur, Philippines",Davao Del Sur,7.0819602,125.3959879,APPROXIMATE,ChIJIwldewEQ-TIRueCuPCZuNCg,"neighborhood,political","Daliaon Plantation,Davao,Davao Del Sur",1,OK
302,112402042,"Barangay Dominga Rd, Calinan District, Davao City, Davao del Sur, Philippines",Davao Del Sur,7.2367918,125.4810912,GEOMETRIC_CENTER,ChIJ6xWdNnQ--TIRD4Z1qIcO8e4,route,"Dominga,Davao,Davao Del Sur",1,OK
303,112402043,"Dumoy, Talomo, Davao City, Davao del Sur, Philippines",Davao Del Sur,7.0320261,125.5136496,APPROXIMATE,ChIJicFu0awN-TIRHsq1TUjgciE,"neighborhood,political","Dumoy,Davao,Davao Del Sur",1,OK
304,112402044,"Eden, Toril, Davao City, Davao del Sur, Philippines",Davao Del Sur,7.0268179,125.4069533,APPROXIMATE,ChIJY4YFN28P-TIRobSc9qXVl0s,"neighborhood,political","Eden,Davao,Davao Del Sur",1,OK
305,112402045,"Fatima (Benowang), Davao City, Davao del Sur, Philippines",Davao Del Sur,7.28748,125.5274756,APPROXIMATE,ChIJQyIOkdo4-TIRtADtZ7Ol690,"administrative_area_level_5,political","Fatima (Benowang),Davao,Davao Del Sur",1,OK
306,112402047,"Gatungan, Bunawan, Davao City, Davao del Sur, Philippines",Davao Del Sur,7.2172802,125.6040785,APPROXIMATE,ChIJq7ZMwTFA-TIRoNqq4SzRyi8,"neighborhood,political","Gatungan,Davao,Davao Del Sur",1,OK
307,112402048,"Gumalang, Davao City, Davao del Sur, Philippines",Davao Del Sur,7.2176821,125.3959879,APPROXIMATE,ChIJcdrfsPwX-TIR6MvXrVVt6eg,"neighborhood,political","Gumalang,Davao,Davao Del Sur",1,OK
308,112402049,"Ilang, Bunawan, Davao City, Davao del Sur, Philippines",Davao Del Sur,7.1772479,125.6478189,APPROXIMATE,ChIJDfvvUiRq-TIRhhOmJ8hBlO4,"neighborhood,political","Ilang,Davao,Davao Del Sur",1,OK
309,112402050,"Indangan, Buhangin, Davao City, Davao del Sur, Philippines",Davao Del Sur,7.168877,125.5992934,APPROXIMATE,ChIJKehnYAJr-TIRjD0gEuXMAPM,"neighborhood,political","Indangan,Davao,Davao Del Sur",1,OK
310,112402051,"Kilate, Toril, Davao City, Davao del Sur, Philippines",Davao Del Sur,7.0510554,125.4398407,APPROXIMATE,ChIJ9Q7kmE4O-TIRia0_GIrrriw,"neighborhood,political","Kilate,Davao,Davao Del Sur",1,OK
311,112402052,"Lacson, Calinan District, Davao City, Davao del Sur, Philippines",Davao Del Sur,7.2137961,125.4398407,APPROXIMATE,ChIJKXdNHoY9-TIRDUtF8VU1cHs,"neighborhood,political","Lacson,Davao,Davao Del Sur",1,OK
312,112402053,"Lamanan, Calinan District, Davao City, Davao del Sur, Philippines",Davao Del Sur,7.2409657,125.4398407,APPROXIMATE,ChIJQTFc76c9-TIRNS2eaYU4JmI,"neighborhood,political","Lamanan,Davao,Davao Del Sur",1,OK
313,112402054,"Lampianao, Calinan District, Davao City, Davao del Sur, Philippines",Davao Del Sur,7.2241101,125.5274756,APPROXIMATE,ChIJf1-sfcw_-TIRHYy6h6Qhtyo,"neighborhood,political","Lampianao,Davao,Davao Del Sur",1,OK
314,112402055,"Langub, Talomo, Davao City, Davao del Sur, Philippines",Davao Del Sur,7.1069933,125.5606653,APPROXIMATE,ChIJfT6vsS8T-TIRQ8anAJmkGyM,"neighborhood,political","Langub,Davao,Davao Del Sur",1,OK
315,112402056,"Alejandra Navarro (Lasang), Davao del Sur, Philippines",Davao Del Sur,7.2666242,125.6587503,APPROXIMATE,ChIJ1cN8rPtD-TIReX8TyyOLnHI,"administrative_area_level_5,political","Alejandra Navarro (Lasang),Davao,Davao Del Sur",1,OK
316,112402057,"Lizada, Toril, Davao City, Davao del Sur, Philippines",Davao Del Sur,7.0012109,125.4946236,APPROXIMATE,ChIJLbShSwkM-TIRjZUYRlIS_P0,"neighborhood,political","Lizada,Davao,Davao Del Sur",1,OK
317,112402058,"Los Amigos, Tugbok, Davao City, Davao del Sur, Philippines",Davao Del Sur,7.1405399,125.4754538,APPROXIMATE,ChIJHyTgDVUR-TIR1eQhK34XbcY,"neighborhood,political","Los Amigos,Davao,Davao Del Sur",1,OK
318,112402059,"Lubogan, Toril, Davao City, Davao del Sur, Philippines",Davao Del Sur,7.0352633,125.4918854,APPROXIMATE,ChIJ77zbPs0N-TIRwCLTjv6Fb1I,"neighborhood,political","Lubogan,Davao,Davao Del Sur",1,OK
319,112402060,"Lumiad, Davao City, Davao del Sur, Philippines",Davao Del Sur,7.3901359,125.4453207,APPROXIMATE,ChIJ_Y4YS_Aw-TIR3QDcmTHtY7o,"neighborhood,political","Lumiad,Davao,Davao Del Sur",1,OK
320,112402061,"Ma-a, Talomo, Davao City, Davao del Sur, Philippines",Davao Del Sur,7.0884927,125.5804414,APPROXIMATE,ChIJp9c18ydt-TIRvhROU0zMIxw,"neighborhood,political","Ma-a,Davao,Davao Del Sur",1,OK
321,112402062,"Mabuhay, Davao City, Davao del Norte, Philippines",Davao Del Sur,7.3146603,125.5274756,APPROXIMATE,ChIJT9OEIvg4-TIRmLyNtweKA7E,"neighborhood,political","Mabuhay,Davao,Davao Del Sur",1,OK
322,112402063,"Magtuod, Talomo, Davao City, Davao del Sur, Philippines",Davao Del Sur,7.1188082,125.5685219,APPROXIMATE,ChIJwbC1K8ps-TIRhWwRgGmGolw,"neighborhood,political","Magtuod,Davao,Davao Del Sur",1,OK
323,112402064,"Mahayag, Bunawan, Davao City, Davao del Sur, Philippines",Davao Del Sur,7.2173427,125.6286854,APPROXIMATE,ChIJwVVsqb9B-TIRJyTKer2FPUQ,"neighborhood,political","Mahayag,Davao,Davao Del Sur",1,OK
324,112402065,"Malabog, Davao City, Davao del Sur, Philippines",Davao Del Sur,7.3396198,125.4014708,APPROXIMATE,ChIJw7OaIuM6-TIRAm6qae00MYM,"neighborhood,political","Malabog,Davao,Davao Del Sur",1,OK
325,112402066,"Malagos, Davao City, Davao del Sur, Philippines",Davao Del Sur,7.1876077,125.4288797,APPROXIMATE,ChIJoZkcra8X-TIRYzyjxPHPzQk,"neighborhood,political","Malagos,Davao,Davao Del Sur",1,OK
326,112402067,"Malamba, Marilog District, Davao City, Davao del Sur, Philippines",Davao Del Sur,7.2709509,125.3575974,APPROXIMATE,ChIJC9BvTAUj-TIRSmPwsl-wRH0,"neighborhood,political","Malamba,Davao,Davao Del Sur",1,OK
327,112402068,"Manambulan, Tugbok, Davao City, Davao del Sur, Philippines",Davao Del Sur,7.1052494,125.4398407,APPROXIMATE,ChIJq8ZuFKUR-TIReEG8-iTu8zo,"neighborhood,political","Manambulan,Davao,Davao Del Sur",1,OK
328,112402069,"Mandug, Buhangin, Davao City, Davao del Sur, Philippines",Davao Del Sur,7.1559759,125.5821994,APPROXIMATE,ChIJwTe4FiZr-TIRlpc3NzyhTIU,"neighborhood,political","Mandug,Davao,Davao Del Sur",1,OK
329,112402070,"Manuel Guianga, Tugbok, Davao City, Davao del Sur, Philippines",Davao Del Sur,7.0981256,125.4179172,APPROXIMATE,ChIJLZ1nlGkQ-TIRvE6-sPCqzGM,"neighborhood,political","Manuel Guianga,Davao,Davao Del Sur",1,OK
330,112402071,"Mapula, Marilog District, Davao City, Davao del Sur, Philippines",Davao Del Sur,7.4284758,125.4233987,APPROXIMATE,ChIJ3afOdoQx-TIR0a7FpdOrRew,"neighborhood,political","Mapula,Davao,Davao Del Sur",1,OK
331,112402072,"Marapangi, Toril, Davao City, Davao del Sur, Philippines",Davao Del Sur,7.0121183,125.4727149,APPROXIMATE,ChIJeZDs0aMO-TIRJV_MEp5l86U,"neighborhood,political","Marapangi,Davao,Davao Del Sur",1,OK
332,112402073,"Marilog District, Davao City, Philippines",Davao Del Sur,7.3707311,125.3029807,APPROXIMATE,ChIJmwl6J-Ml-TIRB08RGWevqiw,"political,sublocality,sublocality_level_1","Marilog,Davao,Davao Del Sur",1,OK
333,112402074,"Matina Aplaya, Talomo, Davao City, Davao del Sur, Philippines",Davao Del Sur,7.0438878,125.5744871,APPROXIMATE,ChIJubtHB79y-TIR7G7yIv_dUFo,"neighborhood,political","Matina Aplaya,Davao,Davao Del Sur",1,OK
334,112402075,"Matina Crossing, Talomo, Davao City, Davao del Sur, Philippines",Davao Del Sur,7.0560471,125.5772738,APPROXIMATE,ChIJAdAnqVxt-TIRRuTm4wPwlP4,"neighborhood,political","Matina Crossing,Davao,Davao Del Sur",1,OK
335,112402077,"Matina Pangi, Talomo, Davao City, Davao del Sur, Philippines",Davao Del Sur,7.0782026,125.5685219,APPROXIMATE,ChIJm4_QAjNt-TIRz4OFzXBRpEs,"neighborhood,political","Matina Pangi,Davao,Davao Del Sur",1,OK
336,112402078,"Matina Biao, Tugbok, Davao City, Davao del Sur, Philippines",Davao Del Sur,7.1327427,125.5384234,APPROXIMATE,ChIJVXL8SmAT-TIR3YmGYQDha4w,"neighborhood,political","Matina Biao,Davao,Davao Del Sur",1,OK
337,112402079,"Mintal, Tugbok, Davao City, Davao del Sur, Philippines",Davao Del Sur,7.0853758,125.4864085,APPROXIMATE,ChIJa5YIKEcS-TIRd5iRIbmkVd8,"neighborhood,political","Mintal,Davao,Davao Del Sur",1,OK
338,112402080,"Mudiang, Bunawan, Davao City, Davao del Sur, Philippines",Davao Del Sur,7.1771766,125.6232179,APPROXIMATE,ChIJ8fgTpEVq-TIRLuqSRqWp1Qw,"neighborhood,political","Mudiang,Davao,Davao Del Sur",1,OK
339,112402081,"Mulig, Toril, Davao City, Davao del Sur, Philippines",Davao Del Sur,7.0752835,125.4727149,APPROXIMATE,ChIJgVW-teQR-TIRTOxWJO2SA38,"neighborhood,political","Mulig,Davao,Davao Del Sur",1,OK
340,112402082,"New Carmen, Tugbok, Davao City, Davao del Sur, Philippines",Davao Del Sur,7.1579107,125.5603143,APPROXIMATE,ChIJsbdN6s4U-TIRYhz5thKYjbE,"neighborhood,political","New Carmen,Davao,Davao Del Sur",1,OK
341,112402083,"New Valencia, Tugbok, Davao City, Davao del Sur, Philippines",Davao Del Sur,7.1859897,125.5493696,APPROXIMATE,ChIJrcJFFT8V-TIRLnDaF1Fm8nY,"neighborhood,political","New Valencia,Davao,Davao Del Sur",1,OK
342,112402086,"Diamond Village, Buhangin, Davao City, Davao del Sur, Philippines",Davao Del Sur,7.1092582,125.648271,APPROXIMATE,ChIJtQ-_Rg9s-TIRGVl1E3aoQJQ,"neighborhood,political","Pampanga,Davao,Davao Del Sur",1,OK
343,112402087,"Panacan, Bunawan, Davao City, Davao del Sur, Philippines",Davao Del Sur,7.1523559,125.6587899,APPROXIMATE,ChIJrYnzgtpr-TIRz4DENBOWU7E,"neighborhood,political","Panacan,Davao,Davao Del Sur",1,OK
344,112402088,"Pañalum, Calinan District, Davao City, Davao del Sur, Philippines",Davao Del Sur,7.335756,125.4946236,APPROXIMATE,ChIJ9x3WAcA5-TIRcmsmH4vOT4I,"neighborhood,political","Panalum,Davao,Davao Del Sur",1,OK
345,112402089,"Pandaitan, Davao City, Davao del Sur, Philippines",Davao Del Sur,7.4184724,125.5329497,APPROXIMATE,ChIJ25xy9082-TIRbrMBwD3WbCc,"neighborhood,political","Pandaitan,Davao,Davao Del Sur",1,OK
346,112402090,"Pangyan, Calinan District, Davao City, Davao del Sur, Philippines",Davao Del Sur,7.2200037,125.4973618,APPROXIMATE,ChIJNWtughg--TIRMp5IHKxitGw,"neighborhood,political","Pangyan,Davao,Davao Del Sur",1,OK
347,112402091,"Paquibato (Pob.), Davao City, Davao del Sur, Philippines",Davao Del Sur,7.295453,125.489147,APPROXIMATE,ChIJjdC--6s--TIRb2sf7G0wKFw,"administrative_area_level_5,political","Paquibato (Pob.),Davao,Davao Del Sur",1,OK
348,112402092,"Paradise Embak, Davao City, Davao del Sur, Philippines",Davao Del Sur,7.3640281,125.5329497,APPROXIMATE,ChIJ6Wu99IA3-TIRMWNXLHVMKzY,"administrative_area_level_5,political","Paradise Embak,Davao,Davao Del Sur",1,OK
349,112402097,"Riverside, Calinan District, Davao City, Davao del Sur, Philippines",Davao Del Sur,7.1631423,125.4754538,APPROXIMATE,ChIJN09pvp8W-TIRTLYqR0a2BCk,"neighborhood,political","Riverside,Davao,Davao Del Sur",1,OK
350,112402098,"Salapawan, Davao City, Davao del Sur, Philippines",Davao Del Sur,7.4638673,125.48367,APPROXIMATE,ChIJcXC_Y3A0-TIRFCw21wGKzFc,"neighborhood,political","Salapawan,Davao,Davao Del Sur",1,OK
351,112402099,"Salaysay, Davao City, Davao del Sur, Philippines",Davao Del Sur,7.2022969,125.3137005,APPROXIMATE,ChIJa6ySJ8YY-TIRgcE94CQ_Q_k,"administrative_area_level_5,political","Salaysay,Davao,Davao Del Sur",1,OK
352,112402100,"San Isidro (Licanan), Davao del Sur, Philippines",Davao Del Sur,7.2505058,125.6368861,APPROXIMATE,ChIJ99XdyGxB-TIRmTlWl0UPveQ,"administrative_area_level_5,political","San Isidro (Licanan),Davao,Davao Del Sur",1,OK
353,112402101,"Sasa, Buhangin, Davao City, Davao del Sur, Philippines",Davao Del Sur,7.1273025,125.6531127,APPROXIMATE,ChIJ27QRF_5r-TIR2jHcDLT4YLM,"neighborhood,political","Sasa,Davao,Davao Del Sur",1,OK
354,112402102,"Sibulan, Toril, Davao City, Davao del Sur, Philippines",Davao Del Sur,6.9935456,125.3740526,APPROXIMATE,ChIJpckJ4hUG-TIRUU2SFlpzGNw,"neighborhood,political","Sibulan,Davao,Davao Del Sur",1,OK
355,112402104,"Sirawan, Toril, Davao City, Davao del Sur, Philippines",Davao Del Sur,6.986012,125.4617583,APPROXIMATE,ChIJC1g4rFEJ-TIRWx826NQka4A,"neighborhood,political","Sirawan,Davao,Davao Del Sur",1,OK
356,112402105,"Sirib, Calinan District, Davao City, Davao del Sur, Philippines",Davao Del Sur,7.110035,125.385021,APPROXIMATE,ChIJWX6yDYEa-TIRVQRVu4ONr8c,"neighborhood,political","Sirib,Davao,Davao Del Sur",1,OK
357,112402106,"Suawan (Tuli), Davao City, Davao del Sur, Philippines",Davao Del Sur,7.226742,125.3959879,APPROXIMATE,ChIJh9dMU089-TIR-o-Mk2wpSC8,"administrative_area_level_5,political","Suawan (Tuli),Davao,Davao Del Sur",1,OK
358,112402107,"Subasta, Calinan District, Davao City, Davao del Sur, Philippines",Davao Del Sur,7.1439095,125.4371006,APPROXIMATE,ChIJmzNOOioR-TIRop43QIwgaNc,"neighborhood,political","Subasta,Davao,Davao Del Sur",1,OK
359,112402108,"Sumimao, Calinan District, Davao City, Davao del Sur, Philippines",Davao Del Sur,7.2773302,125.489147,APPROXIMATE,ChIJB5NOqOo--TIRIoRzTG9wQ7w,"neighborhood,political","Sumimao,Davao,Davao Del Sur",1,OK
360,112402110,"Tacunan, Tugbok, Davao City, Davao del Sur, Philippines",Davao Del Sur,7.1141057,125.5192639,APPROXIMATE,ChIJ1fFuhacT-TIR-3MgmUfSGvI,"neighborhood,political","Tacunan,Davao,Davao Del Sur",1,OK
361,112402112,"Tagakpan, Tugbok, Davao City, Davao del Sur, Philippines",Davao Del Sur,7.1233258,125.4398407,APPROXIMATE,ChIJo-zcu-IQ-TIRzg0-7wbzsEU,"neighborhood,political","Tagakpan,Davao,Davao Del Sur",1,OK
362,112402113,"Tagluno, Toril, Davao City, Davao del Sur, Philippines",Davao Del Sur,7.0616275,125.4480605,APPROXIMATE,ChIJv2dlWjoO-TIR5zbQsgvTqAM,"neighborhood,political","Tagluno,Davao,Davao Del Sur",1,OK
363,112402114,"Tagurano, Toril, Davao City, Davao del Sur, Philippines",Davao Del Sur,7.0468952,125.4096944,APPROXIMATE,ChIJb-yBUJkP-TIRILOZbxoOw9s,"neighborhood,political","Tagurano,Davao,Davao Del Sur",1,OK
364,112402115,"Talandang, Tugbok, Davao City, Davao del Sur, Philippines",Davao Del Sur,7.1889013,125.5165264,APPROXIMATE,ChIJE88AdKEV-TIR0U5qLW4WYtQ,"neighborhood,political","Talandang,Davao,Davao Del Sur",1,OK
365,112402116,"Talomo (Pob.), Davao City, Davao del Sur, Philippines",Davao Del Sur,7.1248239,125.3191889,APPROXIMATE,ChIJacpgvZwb-TIR1U61avjtbQ4,"administrative_area_level_5,political","Talomo (Pob.),Davao,Davao Del Sur",1,OK
366,112402117,"Talomo River, Calinan District, Davao City, Davao del Sur, Philippines",Davao Del Sur,7.1927815,125.4727149,APPROXIMATE,ChIJocQ-P3YW-TIRmfoa-HNlS48,"neighborhood,political","Talomo River,Davao,Davao Del Sur",1,OK
367,112402118,"Tamayong, Calinan District, Davao City, Davao del Sur, Philippines",Davao Del Sur,7.0867253,125.3411388,APPROXIMATE,ChIJS8nUsO8a-TIRO5EkxxUS39E,"neighborhood,political","Tamayong,Davao,Davao Del Sur",1,OK
368,112402119,"Tambobong, Davao City, Davao del Sur, Philippines",Davao Del Sur,7.1943809,125.3521115,APPROXIMATE,ChIJ2YFJv1AY-TIRk8KkXMdOluk,"neighborhood,political","Tambobong,Davao,Davao Del Sur",1,OK
369,112402120,"Tamugan, Marilog District, Davao City, Davao del Sur, Philippines",Davao Del Sur,7.2438183,125.382279,APPROXIMATE,ChIJO2BL3LYi-TIRLBkaw8XRR9w,"neighborhood,political","Tamugan,Davao,Davao Del Sur",1,OK
370,112402121,"Tapak, Marilog District, Davao City, Davao del Sur, Philippines",Davao Del Sur,7.52957,125.4124355,APPROXIMATE,ChIJ3RrMNDTN_jIROXWOqnQIBpQ,"neighborhood,political","Tapak,Davao,Davao Del Sur",1,OK
371,112402122,"Tawan-Tawan, Davao City, Davao del Sur, Philippines",Davao Del Sur,7.174335,125.3740526,APPROXIMATE,ChIJ56qxEcAZ-TIRg-q4FvhBpfc,"neighborhood,political","Tawan-tawan,Davao,Davao Del Sur",1,OK
372,112402123,"Tibuloy, Toril, Davao City, Davao del Sur, Philippines",Davao Del Sur,6.9813687,125.4371006,APPROXIMATE,ChIJVWgT5B4J-TIR_WfoWfXcc9E,"neighborhood,political","Tibuloy,Davao,Davao Del Sur",1,OK
373,112402124,"Tibungco, Bunawan, Davao City, Davao del Sur, Philippines",Davao Del Sur,7.1958843,125.641604,APPROXIMATE,ChIJuVojlAtq-TIRd9yPD4QBVDQ,"neighborhood,political","Tibungco,Davao,Davao Del Sur",1,OK
374,112402125,"Tigatto, Buhangin, Davao City, Davao del Sur, Philippines",Davao Del Sur,7.127924,125.5931397,APPROXIMATE,ChIJs6UCA5xs-TIRcIJl0-5kmSs,"neighborhood,political","Tigatto,Davao,Davao Del Sur",1,OK
375,112402126,"Toril (Pob.), Toril, Davao City, Davao del Sur, Philippines",Davao Del Sur,7.0175238,125.5014689,APPROXIMATE,ChIJEXAJTT8M-TIRteVESmswCKg,"administrative_area_level_5,political","Toril (Pob.),Davao,Davao Del Sur",1,OK
376,112402127,"Tugbok (Pob.), Tugbok, Davao City, Davao del Sur, Philippines",Davao Del Sur,7.1104512,125.48367,APPROXIMATE,ChIJP_x-MtYT-TIRWU-7Xm72ccU,"administrative_area_level_5,political","Tugbok (Pob.),Davao,Davao Del Sur",1,OK
377,112402128,"Tungakalan, Toril, Davao City, Davao del Sur, Philippines",Davao Del Sur,7.0680469,125.4261392,APPROXIMATE,ChIJs-w5yNAP-TIRmeOOY3zM20M,"administrative_area_level_5,political","Tungakalan,Davao,Davao Del Sur",1,OK
378,112402129,"Ula, Tugbok, Davao City, Davao del Sur, Philippines",Davao Del Sur,7.1275594,125.4946236,APPROXIMATE,ChIJEZFN9uwT-TIRHfmkmcs6Zjw,"neighborhood,political","Ula,Davao,Davao Del Sur",1,OK
379,112402131,"Wangan, Calinan District, Davao City, Davao del Sur, Philippines",Davao Del Sur,7.1685426,125.4398407,APPROXIMATE,ChIJI3XRCuYW-TIR6Q7gOKCM2eI,"neighborhood,political","Wangan,Davao,Davao Del Sur",1,OK
380,112402133,"R 5, Edc Building, Jln Palma Gil St, Poblacion District, Davao City, 8000 Davao del Sur, Philippines",Davao Del Sur,7.0691492,125.6100512,ROOFTOP,ChIJj9uKZp1t-TIRnZmm94wYUY0,"establishment,food,liquor_store,point_of_interest,store","Wines,Davao,Davao Del Sur",1,OK
381,112402134,"Barangay 1, Davao City, Davao del Sur, Philippines",Davao Del Sur,7.0597,125.6061294,APPROXIMATE,ChIJ8TV0V35t-TIRJYZtGgXpAEc,"neighborhood,political","Barangay 1-A (Pob.),Davao,Davao Del Sur",1,OK
382,112402135,"Poblacion District, Davao City, Davao del Sur, Philippines",Davao Del Sur,7.065555,125.6044464,GEOMETRIC_CENTER,ChIJwQ1pfHlt-TIRTeOr372CBTw,"establishment,point_of_interest","Barangay 2-A (Pob.),Davao,Davao Del Sur",1,OK
383,112402136,"Gen. Luna Street, Corner Pelayo Street, Barangay 8-A, Poblacion District, Davao City, 8000 Davao del Sur, Philippines",Davao Del Sur,7.069105,125.607123,GEOMETRIC_CENTER,ChIJ6VjIn3dt-TIRfXwMpn6FF4c,"establishment,point_of_interest","Barangay 3-A (Pob.),Davao,Davao Del Sur",1,OK
384,112402137,"Camus St., Poblacion, Dabaw, 8000 Lalawigan ng Davao del Sur, Philippines",Davao Del Sur,7.0717934,125.6072999,GEOMETRIC_CENTER,ChIJQ8dtZnZt-TIRMVdZV_SO_l8,"establishment,point_of_interest","Barangay 4-A (Pob.),Davao,Davao Del Sur",1,OK
385,112402138,"Barangay 5- A, Davao City, Davao del Sur, Poblacion District, Davao City, Davao del Sur, Philippines",Davao Del Sur,7.0699567,125.5991112,GEOMETRIC_CENTER,ChIJjaLcZnZt-TIREJXGgiDk26Q,"establishment,point_of_interest","Barangay 5-A (Pob.),Davao,Davao Del Sur",10,OK
386,112402139,"Barangay 6, Poblacion District, Davao City, Davao del Sur, Philippines",Davao Del Sur,7.0701999,125.6020276,APPROXIMATE,ChIJJ8064nBt-TIRyP_tMVBkr1I,"neighborhood,political","Barangay 6-A (Pob.),Davao,Davao Del Sur",1,OK
387,112402140,"Barangay 7-A, Poblacion District, Davao City, Davao del Sur, Philippines",Davao Del Sur,7.0722147,125.6047622,APPROXIMATE,ChIJpXi1AXRt-TIRcFHWw_RMCvY,"neighborhood,political","Barangay 7-A (Pob.),Davao,Davao Del Sur",1,OK
388,112402141,"Barangay 8-A, Poblacion District, Davao City, Davao del Sur, Philippines",Davao Del Sur,7.0795621,125.5989223,APPROXIMATE,ChIJGal88xJt-TIRNuKs5ZPUD4w,"neighborhood,political","Barangay 8-A (Pob.),Davao,Davao Del Sur",1,OK
389,112402142,"Barangay 9-A, Poblacion District, Davao City, Davao del Sur, Philippines",Davao Del Sur,7.0767227,125.6047622,APPROXIMATE,ChIJ-5CsvXRt-TIRJpPqwwLDLsM,"neighborhood,political","Barangay 9-A (Pob.),Davao,Davao Del Sur",1,OK
390,112402143,"Barangay 10, Poblacion District, Davao City, Davao del Sur, Philippines",Davao Del Sur,7.0776104,125.6074966,APPROXIMATE,ChIJ-1K13Qpt-TIR4yL4Qy18GoM,"neighborhood,political","Barangay 10-A (Pob.),Davao,Davao Del Sur",1,OK
391,112402144,"Barangay 11, Poblacion District, Davao City, Davao del Sur, Philippines",Davao Del Sur,7.0782461,125.6098892,APPROXIMATE,ChIJBf6kc6Bt-TIR24Mn71YbYGs,"neighborhood,political","Barangay 11-B (Pob.),Davao,Davao Del Sur",10,OK
392,112402145,"Barangay 12-B, Poblacion District, Davao City, Davao del Sur, Philippines",Davao Del Sur,7.0795052,125.6115981,APPROXIMATE,ChIJlaGG5aBt-TIRoUu3ZlxkWYc,"neighborhood,political","Barangay 12-B (Pob.),Davao,Davao Del Sur",1,OK
393,112402146,"Barangay 13-B, Poblacion District, Davao City, Davao del Sur, Philippines",Davao Del Sur,7.0796373,125.613307,APPROXIMATE,ChIJZXFVFaFt-TIRA-kOLaqFSnY,"neighborhood,political","Barangay 13-B (Pob.),Davao,Davao Del Sur",1,OK
394,112402147,"Barangay 14-B, Poblacion District, Davao City, Davao del Sur, Philippines",Davao Del Sur,7.0791459,125.6156994,APPROXIMATE,ChIJsTHSzqNt-TIR8zmgou36Doc,"neighborhood,political","Barangay 14-B (Pob.),Davao,Davao Del Sur",1,OK
395,112402148,"Barangay 15, Poblacion District, Davao City, Davao del Sur, Philippines",Davao Del Sur,7.0816639,125.619117,APPROXIMATE,ChIJFwFwmKRt-TIRDhkEcZwOAX0,"neighborhood,political","Barangay 15-B (Pob.),Davao,Davao Del Sur",3,OK
396,112402149,"Barangay 16-B, Poblacion District, Davao City, Davao del Sur, Philippines",Davao Del Sur,7.0834083,125.6168956,APPROXIMATE,ChIJjQBFsKVt-TIRxxMacn-3PgQ,"neighborhood,political","Barangay 16-B (Pob.),Davao,Davao Del Sur",1,OK
397,112402150,"Barangay 17-B, Poblacion District, Davao City, Davao del Sur, Philippines",Davao Del Sur,7.0839058,125.6160412,APPROXIMATE,ChIJ59sjwKVt-TIRY2ltopZJIc8,"neighborhood,political","Barangay 17-B (Pob.),Davao,Davao Del Sur",1,OK
398,112402151,"Barangay 18, Poblacion District, Davao City, Davao del Sur, Philippines",Davao Del Sur,7.0850928,125.6153576,APPROXIMATE,ChIJj0WC_aVt-TIRd7gPBtT6p0w,"neighborhood,political","Barangay 18-B (Pob.),Davao,Davao Del Sur",1,OK
399,112402152,"Barangay 19-B, Poblacion District, Davao City, Davao del Sur, Philippines",Davao Del Sur,7.0916034,125.6056949,APPROXIMATE,ChIJf3UybQFt-TIRXF9vvPwmCNM,"neighborhood,political","Barangay 19-B (Pob.),Davao,Davao Del Sur",1,OK
400,112402153,"Barangay 20, Poblacion District, Davao City, Davao del Sur, Philippines",Davao Del Sur,7.0889059,125.6136488,APPROXIMATE,ChIJcV3bZqlt-TIRCsQNP4nTRHc,"neighborhood,political","Barangay 20-B (Pob.),Davao,Davao Del Sur",1,OK
401,112402154,"Barangay 21-C, Poblacion District, Davao City, Davao del Sur, Philippines",Davao Del Sur,7.0675185,125.6198005,APPROXIMATE,ChIJQSJltJpt-TIRuuUttIPTWck,"neighborhood,political","Barangay 21-C (Pob.),Davao,Davao Del Sur",1,OK
402,112402155,"Barangay 22-C, Poblacion District, Davao City, Davao del Sur, Philippines",Davao Del Sur,7.0696523,125.6211675,APPROXIMATE,ChIJt9bJiZBt-TIRLDBXMLyUfH0,"neighborhood,political","Barangay 22-C (Pob.),Davao,Davao Del Sur",1,OK
403,112402156,"Barangay 23-C, Poblacion District, Davao City, Davao del Sur, Philippines",Davao Del Sur,7.0716665,125.6239014,APPROXIMATE,ChIJGcA7z5Zt-TIRtbMxfXxU6VM,"neighborhood,political","Barangay 23-C (Pob.),Davao,Davao Del Sur",1,OK
404,112402157,"Barangay 24-C, Poblacion District, Davao City, Davao del Sur, Philippines",Davao Del Sur,7.0700112,125.6170664,APPROXIMATE,ChIJX5T7qJtt-TIRI7PLambmxPE,"neighborhood,political","Barangay 24-C (Pob.),Davao,Davao Del Sur",1,OK
405,112402158,"Barangay 25-C, Poblacion District, Davao City, Davao del Sur, Philippines",Davao Del Sur,7.0700836,125.6194587,APPROXIMATE,ChIJM1aIaZpt-TIR4vHbiG6cK8s,"neighborhood,political","Barangay 25-C (Pob.),Davao,Davao Del Sur",1,OK
406,112402159,"Barangay 26, Poblacion District, Davao City, Davao del Sur, Philippines",Davao Del Sur,7.0732245,125.6221927,APPROXIMATE,ChIJ9w-_Dpdt-TIRI6AzsoTujAI,"neighborhood,political","Barangay 26-C (Pob.),Davao,Davao Del Sur",1,OK
407,112402160,"Barangay 27-C, Poblacion District, Davao City, Davao del Sur, Philippines",Davao Del Sur,7.0751665,125.6225344,APPROXIMATE,ChIJE-561Zdt-TIRJGeORFYIsdQ,"neighborhood,political","Barangay 27-C (Pob.),Davao,Davao Del Sur",1,OK
408,112402161,"Barangay 28-C, Poblacion District, Davao City, Davao del Sur, Philippines",Davao Del Sur,7.0726487,125.619117,APPROXIMATE,ChIJG2eAlplt-TIRgOkZc2vfJh8,"neighborhood,political","Barangay 28-C (Pob.),Davao,Davao Del Sur",1,OK
409,112402162,"Barangay 29-C, Poblacion District, Davao City, Davao del Sur, Philippines",Davao Del Sur,7.0723845,125.6156994,APPROXIMATE,ChIJx4VlTZlt-TIRADtAt_4C6_w,"neighborhood,political","Barangay 29-C (Pob.),Davao,Davao Del Sur",1,OK
410,112402163,"456 Villa Abrille St, Poblacion District, Davao City, 8000 Davao del Sur, Philippines",Davao Del Sur,7.0750441,125.6141134,ROOFTOP,ChIJzezZO59t-TIRAs5Do2LrFJY,"establishment,point_of_interest","Barangay 30-C (Pob.),Davao,Davao Del Sur",1,OK
411,112402164,"Barangay 31, Poblacion District, Davao City, Davao del Sur, Philippines",Davao Del Sur,7.0655043,125.6170664,APPROXIMATE,ChIJFZRAAIVt-TIRsIoME1Pz5Nk,"neighborhood,political","Barangay 31-D (Pob.),Davao,Davao Del Sur",1,OK
412,112402165,"65 Emilio Jacinto St, Poblacion District, Davao City, 8000 Davao del Sur, Philippines",Davao Del Sur,7.0688185,125.6165667,ROOFTOP,ChIJraxRGmFt-TIRiZA1ID2USco,"establishment,point_of_interest","Barangay 32-D (Pob.),Davao,Davao Del Sur",1,OK
413,112402166,"Barangay 33, Poblacion District, Davao City, Davao del Sur, Philippines",Davao Del Sur,7.0676853,125.6146741,APPROXIMATE,ChIJr7LMrZxt-TIRecwomyWbRgc,"neighborhood,political","Barangay 33-D (Pob.),Davao,Davao Del Sur",1,OK
414,112402167,"C. Bangoy St, Barangay 34-D, Davao City, 8000 Davao del Sur, Philippines",Davao Del Sur,7.0697501,125.6105129,GEOMETRIC_CENTER,ChIJkZmzdp1t-TIRxHAIkfTTMmg,"city_hall,establishment,local_government_office,point_of_interest","Barangay 34-D (Pob.),Davao,Davao Del Sur",1,OK
415,112402168,"35-D (Pob.), Poblacion District, Davao City, Davao del Sur, Philippines",Davao Del Sur,7.0668574,125.6112563,APPROXIMATE,ChIJ1T4lwoJt-TIRZde0jhu8QH8,"administrative_area_level_5,political","Barangay 35-D (Pob.),Davao,Davao Del Sur",1,OK
416,112402169,"Barangay 36-D, Poblacion District, Davao City, Davao del Sur, Philippines",Davao Del Sur,7.0654916,125.6139905,APPROXIMATE,ChIJm9U3C4Nt-TIRJWkUth6zVxg,"neighborhood,political","Barangay 36-D (Pob.),Davao,Davao Del Sur",1,OK
417,112402170,"Barangay 37-D, Poblacion District, Davao City, Davao del Sur, Philippines",Davao Del Sur,7.0643051,125.6146741,APPROXIMATE,ChIJERAhp4Bt-TIRAt2MKdnSrNM,"neighborhood,political","Barangay 37-D (Pob.),Davao,Davao Del Sur",1,OK
418,112402171,"Barangay 38, Poblacion District, Davao City, Davao del Sur, Philippines",Davao Del Sur,7.0649752,125.610231,APPROXIMATE,ChIJn4c1aoJt-TIRjaMfnEC4BYw,"neighborhood,political","Barangay 38-D (Pob.),Davao,Davao Del Sur",1,OK
419,112402172,"Barangay 39, Poblacion District, Davao City, Davao del Sur, Philippines",Davao Del Sur,7.0628412,125.6088638,APPROXIMATE,ChIJD2kQV39t-TIRJvEem0FDODA,"neighborhood,political","Barangay 39-D (Pob.),Davao,Davao Del Sur",1,OK
420,112402173,"Barangay 40, Poblacion District, Davao City, Davao del Sur, Philippines",Davao Del Sur,7.0605878,125.6088638,APPROXIMATE,ChIJhY9-kX9t-TIRj2vJQiYedwg,"neighborhood,political","Barangay 40-D (Pob.),Davao,Davao Del Sur",1,OK
421,112402174,"Angalan, Tugbok, Davao City, Davao del Sur, Philippines",Davao Del Sur,7.1193865,125.4590189,APPROXIMATE,ChIJe-tQ8G0R-TIRLiLZR2oacsI,"neighborhood,political","Angalan,Davao,Davao Del Sur",1,OK
422,112402175,"Baganihan, Marilog District, Davao City, Cotabato, Philippines",Davao Del Sur,7.4393642,125.2285836,APPROXIMATE,ChIJmRNLwPIp-TIRDIqNAlkp_YY,"neighborhood,political","Baganihan,Davao,Davao Del Sur",1,OK
423,112402176,"Bago Aplaya, Talomo, Davao City, Davao del Sur, Philippines",Davao Del Sur,7.0452161,125.5329813,APPROXIMATE,ChIJz5LN_xEN-TIRWFH_bkummn0,"neighborhood,political","Bago Aplaya,Davao,Davao Del Sur",1,OK
424,112402177,"Bantol, Marilog District, Davao City, Davao del Sur, Philippines",Davao Del Sur,7.3112954,125.3630828,APPROXIMATE,ChIJvVyqw5wk-TIRDM4R4fOnUlA,"neighborhood,political","Bantol,Davao,Davao Del Sur",1,OK
425,112402178,"Buda, Marilog District, Davao City, Philippines",Davao Del Sur,7.5336003,125.2697802,APPROXIMATE,ChIJNdfOednU_jIR0V4nANrpTKI,"neighborhood,political","Buda,Davao,Davao Del Sur",1,OK
426,112402179,"Centro (San Juan), Agdao, Davao City, Davao del Sur, Philippines",Davao Del Sur,7.0912546,125.6382528,APPROXIMATE,ChIJe3DntMxt-TIR_P-rftAJns0,"administrative_area_level_5,political","Centro (San Juan),Davao,Davao Del Sur",1,OK
427,112402180,"Datu Salumay, Marilog District, Davao City, Philippines",Davao Del Sur,7.4971257,125.2697802,APPROXIMATE,ChIJO8AVPwQr-TIRTNSwXppDjGM,"neighborhood,political","Datu Salumay,Davao,Davao Del Sur",1,OK
428,112402181,"Paciano Bangoy, Agdao, Davao City, Davao del Sur, Philippines",Davao Del Sur,7.0884262,125.619117,APPROXIMATE,ChIJ_wmGeq1t-TIRp5kUNr1L0Uo,"neighborhood,political","Gov. Paciano Bangoy,Davao,Davao Del Sur",1,OK
429,112402182,"Gov. Vicente Duterte, Agdao, Davao City, Davao del Sur, Philippines",Davao Del Sur,7.0878503,125.6321025,APPROXIMATE,ChIJeUKXArZt-TIReZh938BycNI,"administrative_area_level_5,political","Gov. Vicente Duterte,Davao,Davao Del Sur",1,OK
430,112402183,"Gumitan, Marilog District, Davao City, Davao del Sur, Philippines",Davao Del Sur,7.3980926,125.3575974,APPROXIMATE,ChIJFfFDhaUv-TIROubYzuMSOp4,"neighborhood,political","Gumitan,Davao,Davao Del Sur",1,OK
431,112402184,"Inayangan, Calinan District, Davao City, Davao del Sur, Philippines",Davao Del Sur,7.2671695,125.4508003,APPROXIMATE,ChIJsYzRUUM8-TIRuqIVvoP4PQE,"neighborhood,political","Inayangan,Davao,Davao Del Sur",1,OK
432,112402185,"Tomas Monteverde, Agdao, Davao City, Davao del Sur, Philippines",Davao Del Sur,7.0785471,125.6225344,APPROXIMATE,ChIJYVhv8bxt-TIRF6Yi28vBnyE,"neighborhood,political","Kap. Tomas Monteverde, Sr.,Davao,Davao Del Sur",1,OK
433,112402186,"Lapu-lapu, Talomo, Davao City, Davao del Sur, Philippines",Davao Del Sur,7.0610927,125.600047,GEOMETRIC_CENTER,ChIJAdztPX1t-TIRb5dkwrhRbmg,route,"Lapu-lapu,Davao,Davao Del Sur",1,OK
434,112402187,"Leon Garcia, Sr., Agdao, Davao City, Davao del Sur, Philippines",Davao Del Sur,7.0813765,125.62561,APPROXIMATE,ChIJBYe7ZLlt-TIRX3oObAM4UfY,"neighborhood,political","Leon Garcia, Sr.,Davao,Davao Del Sur",1,OK
435,112402188,"Magsaysay, Davao del Sur, Philippines",Davao Del Sur,6.7915557,125.148879,APPROXIMATE,ChIJN4WtwvxN-DIR1T4M_i8c0bI,"locality,political","Magsaysay,Davao,Davao Del Sur",1,OK
436,112402189,"Megkawayan, Davao City, Davao del Sur, Philippines",Davao Del Sur,7.2190991,125.5329497,APPROXIMATE,ChIJGbpxT8U_-TIRuqgGSm132Dw,"administrative_area_level_5,political","Megkawayan,Davao,Davao Del Sur",1,OK
437,112402190,"Rafael Castillo, Agdao, Davao City, Davao del Sur, Philippines",Davao Del Sur,7.100271,125.6382528,APPROXIMATE,ChIJi4qcxTBs-TIRfnWnF4MGzDE,"administrative_area_level_5,political","Rafael Castillo,Davao,Davao Del Sur",1,OK
438,112402191,"Saloy, Calinan District, Davao City, Davao del Sur, Philippines",Davao Del Sur,7.2882401,125.4179172,APPROXIMATE,ChIJrdpXm5g8-TIRLxfBfx5lP-M,"neighborhood,political","Saloy,Davao,Davao Del Sur",1,OK
439,112402192,"San Antonio, Agdao, Davao City, Davao del Sur, Philippines",Davao Del Sur,7.094229,125.6300523,APPROXIMATE,ChIJ74tcDUps-TIRfiDMXBfYNlk,"neighborhood,political","San Antonio,Davao,Davao Del Sur",1,OK
440,112402193,"Santo Nino, Davao City, Davao del Sur, Philippines",Davao Del Sur,7.0822158,125.5096825,APPROXIMATE,ChIJmwgXwGgS-TIR1rWWKU35WH8,"administrative_area_level_5,political","Santo Niño,Davao,Davao Del Sur",1,OK
441,112402194,"Ubalde, Agdao, Davao City, Davao del Sur, Philippines",Davao Del Sur,7.0954994,125.634836,APPROXIMATE,ChIJO8AtWzRs-TIR9LRN1khkDaI,"administrative_area_level_5,political","Ubalde,Davao,Davao Del Sur",1,OK
442,112402195,"Waan, Buhangin, Davao City, Davao del Sur, Philippines",Davao Del Sur,7.1268721,125.5794641,APPROXIMATE,ChIJ9QVsEKVs-TIRLgHJeeMmdBw,"neighborhood,political","Waan,Davao,Davao Del Sur",1,OK
443,112402196,"Wilfredo Aquino, Agdao, Davao City, Davao del Sur, Philippines",Davao Del Sur,7.0947092,125.6245848,APPROXIMATE,ChIJbZ17xkxs-TIRloBa9t600TE,"neighborhood,political","Wilfredo Aquino,Davao,Davao Del Sur",1,OK
444,112402197,"A Angliongto Sr, Buhangin, Davao City, Davao del Sur, Philippines",Davao Del Sur,7.1085225,125.6341526,APPROXIMATE,ChIJPxLPoBVs-TIReH76yROzPNI,"administrative_area_level_5,political","Alfonso Angliongto Sr.,Davao,Davao Del Sur",1,OK
445,112402198,"Castaneda Bldg, 71 J.P. Laurel Ave, Bajada, Davao City, 8000 Davao del Sur, Philippines",Davao Del Sur,7.1113613,125.6497192,ROOFTOP,ChIJd4WbGx9s-TIRC7bPKKr8Uhw,"establishment,point_of_interest","Vicente Hizon Sr.,Davao,Davao Del Sur",2,OK
446,112403000,"Digos City, Davao del Sur, Philippines",Davao Del Sur,6.7575087,125.352398,APPROXIMATE,ChIJh9Y3vJGu-TIR_DZCqXid-SQ,"locality,political","CITY OF DIGOS,Davao Del Sur",1,OK
447,112403001,"Aplaya, Digos City, Davao del Sur, Philippines",Davao Del Sur,6.7394173,125.3713103,APPROXIMATE,ChIJD5_YNZGw-TIR7tIX1vgaU5A,"neighborhood,political","Aplaya,Digos,Davao Del Sur",1,OK
448,112403002,"Balabag, Digos City, Davao del Sur, Philippines",Davao Del Sur,6.8315232,125.2642885,APPROXIMATE,ChIJ6WnDa66t-TIRmta9ou6f7QI,"administrative_area_level_5,political","Balabag,Digos,Davao Del Sur",1,OK
449,112403003,"San Jose (Balutakay), Digos City, Davao del Sur, Philippines",Davao Del Sur,6.737193,125.3438821,APPROXIMATE,ChIJA00SoiGx-TIR24NgHyuezbc,"administrative_area_level_5,political","San Jose (Balutakay),Digos,Davao Del Sur",1,OK
450,112403004,"Binaton, Davao del Sur, Philippines",Davao Del Sur,6.8160998,125.3411388,APPROXIMATE,ChIJh5QuHquv-TIR_-ugfLvrOjg,"administrative_area_level_5,political","Binaton,Digos,Davao Del Sur",1,OK
451,112403005,"Cogon, Digos City, Davao del Sur, Philippines",Davao Del Sur,6.7594052,125.3740526,APPROXIMATE,ChIJ-34KCmOw-TIRldqbWqjUatU,"neighborhood,political","Cogon,Digos,Davao Del Sur",1,OK
452,112403006,"Colorado, Digos City, Davao del Sur, Philippines",Davao Del Sur,6.7637526,125.2944882,APPROXIMATE,ChIJ-yfSTS2y-TIR50WiLS8aYoI,"neighborhood,political","Colorado,Digos,Davao Del Sur",1,OK
453,112403007,"Dawis, Digos City, Davao del Sur, Philippines",Davao Del Sur,6.7263975,125.3658254,APPROXIMATE,ChIJldNY4cew-TIR0-kxIaDSytk,"neighborhood,political","Dawis,Digos,Davao Del Sur",1,OK
454,112403008,"Dulangan, Digos City, Davao del Sur, Philippines",Davao Del Sur,6.8020882,125.3068395,APPROXIMATE,ChIJd9Mhywau-TIRLX1h13GE_ko,"neighborhood,political","Dulangan,Digos,Davao Del Sur",1,OK
455,112403009,"Goma, Digos City, Davao del Sur, Philippines",Davao Del Sur,6.8137966,125.3013502,APPROXIMATE,ChIJK4WRKeCt-TIR4PCYqp8i4jg,"neighborhood,political","Goma,Digos,Davao Del Sur",1,OK
456,112403010,"Igpit, Davao del Sur, Philippines",Davao Del Sur,6.7394593,125.3164447,APPROXIMATE,ChIJUx1sSFux-TIRnajd0zG9u4I,"administrative_area_level_5,political","Igpit,Digos,Davao Del Sur",1,OK
457,112403011,"Kiagot, Digos City, Davao del Sur, Philippines",Davao Del Sur,6.7702146,125.3521115,APPROXIMATE,ChIJQxRo6Emw-TIR91Qb_2Ci8Vc,"neighborhood,political","Kiagot,Digos,Davao Del Sur",1,OK
458,112403012,"Lungag, Digos City, Davao del Sur, Philippines",Davao Del Sur,6.7975242,125.2670344,APPROXIMATE,ChIJgZc6y4mt-TIRFib-XZYWXmY,"administrative_area_level_5,political","Lungag,Digos,Davao Del Sur",1,OK
459,112403013,"Mahayahay, Digos City, Davao del Sur, Philippines",Davao Del Sur,6.8026772,125.286253,APPROXIMATE,ChIJLTIJ3w6y-TIRUWmMSZb49Ro,"administrative_area_level_5,political","Mahayahay,Digos,Davao Del Sur",1,OK
460,112403014,"Matti, Digos City, Davao del Sur, Philippines",Davao Del Sur,6.7648644,125.3082117,APPROXIMATE,ChIJm4Ip9oOx-TIRENx2r2zz6OI,"neighborhood,political","Matti,Digos,Davao Del Sur",1,OK
461,112403019,"Kapatagan (Rizal), Davao del Sur, Philippines",Davao Del Sur,6.9167056,125.2697802,APPROXIMATE,ChIJ5dMKsrSr-TIRScUb4lLzDg4,"administrative_area_level_5,political","Kapatagan (Rizal),Digos,Davao Del Sur",1,OK
462,112403020,"Ruparan, Digos City, Davao del Sur, Philippines",Davao Del Sur,6.7929583,125.3219329,APPROXIMATE,ChIJZTmUPuCx-TIRpvajDsp3oS4,"neighborhood,political","Ruparan,Digos,Davao Del Sur",1,OK
463,112403021,"San Agustin, Digos City, Davao del Sur, Philippines",Davao Del Sur,6.7659754,125.3219329,APPROXIMATE,ChIJ6yeveJmx-TIRIdtXoiWg5Mk,"neighborhood,political","San Agustin,Digos,Davao Del Sur",1,OK
464,112403022,"San Miguel (Odaca), Digos City, Davao del Sur, Philippines",Davao Del Sur,6.742593,125.3329082,APPROXIMATE,ChIJkZ5_1Rex-TIRQvq7VbJQA6A,"administrative_area_level_5,political","San Miguel (Odaca),Digos,Davao Del Sur",1,OK
465,112403023,"San Roque, Davao del Sur, Philippines",Davao Del Sur,6.7846772,125.286253,APPROXIMATE,ChIJF_LYxWqy-TIRLTZ2dpKssKc,"administrative_area_level_5,political","San Roque,Digos,Davao Del Sur",1,OK
466,112403024,"Sinawilan, Digos City, Davao del Sur, Philippines",Davao Del Sur,6.7749049,125.3767949,APPROXIMATE,ChIJ0XFf8RKw-TIRDODT9eZALoI,"neighborhood,political","Sinawilan,Digos,Davao Del Sur",1,OK
